LAT,LON,IATA,AIRPORT_NAME
11.222219,169.851429,UTK,Utirik Airport
25.325399398804,-80.274803161621,OCA,Ocean Reef Club Airport
38.851918,-106.928341,CSE,Crested Butte Airpark
31.823898,-107.629924,CUS,Columbus Airport
30.251801,-98.622498,JCY,LBJ Ranch Airport
55.601299,-131.636993,WLR,Loring Seaplane Base
60.905591,-162.440454,NUP,Nunapitchuk Airport
55.803,-133.597,PTC,Port Alice Seaplane Base
59.966269,-141.660118,ICY,Icy Bay Airport
56.3288,-133.610001,PPV,Port Protection Seaplane Base
64.4166256967,-156.820392609,KKK,Kalakaket Creek AS Airport
41.263199,-122.272003,MHS,Dunsmuir Muni-Mott Airport
28.362444,-97.661917,NIR,Chase Field Industrial Airport
36.257984,-113.231063,GCT,Grand Canyon Bar Ten Airstrip
60.893818,-146.704038,ELW,Ellamar Seaplane Base
61.3591003418,-155.440002441,LVD,Lime Village Airport
66.176133,-155.684816,HGZ,Hog River Airport
38.851782,-87.49987,OTN,Ed-Air Airport
63.393902,-153.268997,TLF,Telida Airport
28.982200622559,-95.579696655273,BZT,Eagle Air Park
57.412201,-133.43848,HBH,Entrance Island Seaplane Base
57.5321998596,-135.212997437,FAK,False Island Seaplane Base
48.579162,-122.823844,BYW,Blakely Island Airport
60.5889015198,-152.162002563,DRF,Drift River Airport
41.2308998108,-89.61569976810001,BDF,Rinkenberger Restricted Landing Area
63.124618,-142.518005,TEH,Tetlin Airport
38.427799224854,-92.875198364258,VRS,Roy Otten Memorial Airfield
59.7470016479,-158.875,GDH,Golden Horn Lodge Seaplane Base
60.866699,-162.272996,ATT,Atmautluak Airport
65.467,-148.6534,LIV,Livengood Camp Airport
59.796925,-154.129994,PDB,Pedro Bay Airport
57.942094,-152.464314,KOZ,Ouzinkie Airport
60.569638,-165.246649,TNK,Tununak Airport
55.903324,-130.009975,WHD,Hyder Seaplane Base
65.147991,-149.368658,MNT,Minto Al Wright Airport
55.937099,-133.326996,TKI,Tokeen Seaplane Base
59.2826004028,-158.617996216,WKK,Aleknagik / New Airport
55.349899,-131.677002,WFB,Ketchikan Harbor Seaplane Base
32.953543,-90.845144,RFK,Rollang Field
58.735633,-157.02216,NNK,Naknek Airport
58.554798,-155.776993,BKF,Lake Brooks Seaplane Base
29.866078,-90.021608,BCS,Southern Seaplane Airport
42.460298,-71.519031,MMN,Minute Man Air Field
33.7491989136,-118.275001526,SPQ,Catalina Air-Sea Terminal Heliport
40.742372,-73.972074,TSS,East 34th Street Heliport
40.735061,-73.972814,NYS,New York Skyports Inc Seaplane Base
36.7958984375,-97.3170013428,BWL,Earl Henry Airport
55.916302,-131.800995,WYB,Yes Bay Lodge Seaplane Base
48.490046,-122.831612,CWS,Center Island Airport
60.871449,-146.690297,TEK,Tatitlek Airport
36.252744,-75.785256,DUF,Pine Island Airport
48.673379,-123.175439,SSW,Stuart Island Airpark
39.472445,-123.795319,FOB,Fort Bragg Airport
47.734001159668,-122.64700317383,PUL,Port of Poulsbo Marina Moorage Seaplane Base
34.060798645,-118.417999268,CCD,Century City Heliport
55.739601,-132.255005,WMK,Meyers Chuck Seaplane Base
44.312002,-75.90034,AXB,Maxson Airfield
33.590301513672,-102.03700256348,REE,Reese Airpark
48.71141,-123.018208,WDN,Waldron Airstrip
56.116299,-133.121994,WWP,Whale Pass Seaplane Float Harbor Facility
61.579102,-159.216003,CHU,Chuathbaluk Airport
57.523476,-157.396344,UGS,Ugashik Airport
34.020472,-117.927396,JID,Recreation and Conference Center Heliport
39.859001159668,-75.299598693848,PSQ,Philadelphia Seaplane Base
59.12606,-156.860906,KLL,Levelock Airport
56.886299,-134.158005,SGW,Saginaw Seaplane Base
60.351243,-162.654476,WTL,Tuntutuliak Airport
59.074713,-160.274992,TWA,Twin Hills Airport
56.255001,-158.774994,KCQ,Chignik Lake Airport
6.095802,46.6375,AAD,Adado Airport
-6.06462,141.095173,ABP,Atkamba Airport
-2.143713,-71.75935,ACM,Arica Airport
11.4023,26.1186,ADV,El Daein Airport
10.053611,32.959444,AEE,Adareil Airport
43.908407,120.15099,AEQ,Ar Horqin Airport
7.284,81.644,AFK,Kondavattavana Tank Seaplane Base
-9.191389,160.948611,AFT,Afutara Aerodrome
-9.86054358262,161.979546547,RNA,Ulawa Airport
-8.87333,161.011002,ATD,Uru Harbour Airport
-7.912779808044434,156.70599365234375,VEV,Barakoma Airport
-8.56202777778,158.119305556,BPF,Batuna Aerodrome
-7.575829982757568,156.5970001220703,GEF,Geva Airport
-4.057077,144.073841,AGG,Angoram Airport
-8.70257,160.682007,AKS,Gwaunaru'u Airport
-11.3022222222,159.798333333,BNY,Bellona/Anua Airport
-6.711944,156.396111,CHY,Choiseul Bay Airport
-6.990745,155.886656,BAS,Ballalae Airport
-8.1075,159.576996,FRE,Fera/Maringe Airport
-9.428,160.054993,HIR,Honiara International Airport
-9.7475,159.839005,MBU,Babanakira Airport
-9.868333,160.410556,AVU,Avu Avu Airport
-10.4497003555,161.897994995,IRA,Ngorangora Airport
-10.7203,165.794998,SCZ,Santa Cruz/Graciosa Bay/Luova Airport
-8.32797,157.263,MUA,Munda Airport
-8.09778022766,156.863998413,GZO,Nusatupe Airport
-7.41694,155.565002,MNY,Mono Airport
-9.64167022705078,161.4250030517578,PRS,Parasi Airport
-11.55,160.062778,RNL,Rennell/Tingoa Airport
-8.57889,157.876007,EGM,Sege Airport
-10.847994,162.454108,NNB,Santa Ana Airport
-9.86167,160.824997,RUS,Marau Airport
-7.58556,158.731003,VAO,Suavanao Airport
-9.092816,159.21841,XYA,Yandina Airport
-6.396388888890001,143.853611111,AGK,Kagua Airport
-7.3305,157.585,KGE,Kaghau Airport
-8.0262,156.94783,KUE,Kukudu Airport
-8.360508,160.775127,KWS,Kwailabesi Airport
-10.296828,166.327322,LLM,Lomlom Airport
-10.6758,162.2049,NAZ,Nana Airport
-8.325008,160.80051,MHM,Manaoba Airport
-8.738358,158.202836,GTA,Gatokae Aerodrome
-8.12639045715332,157.14300537109375,RIN,Ringi Cove Airport
-8.168060302734375,157.64300537109375,RBV,Ramata Airport
-9.108,160.149166667,TLG,Tulaghi Heliport
-20.0158333333,45.535,AHY,Ambatolhy Airport
7.279422,168.8257,AIC,Ailinglaplap Airok Airport
65.0518035889,-146.04699707,CEX,Chena Hot Springs Airport
64.5605,-164.4457,SOL,Solomon State Field
55.802346,-160.901346,HED,Herendeen Bay Airport
65.6792984009,-164.798995972,TWE,Taylor Airport
59.9631996155,-158.477005005,KTH,Tikchik Lodge Seaplane Base
55.849602,-133.227994,NKI,Naukati Bay Seaplane Base
65.907699585,-161.925994873,CDL,Candle 2 Airport
57.4715003967,-153.815002441,AOS,Amook Bay Seaplane Base
60.4230995178,-146.145996094,BSW,Boswell Bay Airport
10.8902777778,19.8172222222,AKM,Zakuoma Airport
56.897294,-154.249692,ALZ,Alitak Seaplane Base
39.202272,46.455204,YUK,Syunik Airport
-15.6102777778,37.6813888889,AME,Alto Molocue Airport
-17.686667,45.623889,AMY,Ambatomainty Airport
-0.547893,166.919525,INU,Nauru International Airport
-25.0325,132.2748,ANZ,Angus Downs Airport
-9.431359,20.311557,CTV,Catoca Airport
-11.4723,16.710899,ANL,Andulo Airport
-13.7106,19.861099,CNZ,Cangamba Airport
-17.981924,20.768061,DRC,Dirico Airport
-9.280378,14.982432,NDF,N'dalatando Airport
-4.90416666667,144.635833333,AOB,Annanberg Airport
11.4773,19.2874,AOD,Abou-Deïa Airport
-8.979167,148.103611,APP,Asapa Airport
60.968774,-149.119792,AQY,Girdwood-Alyeska Airport
-35.145811,-60.480294,QRF,Bragado Airport
-46.37428,-67.59409,CVI,Caleta Olivia Airport
-27.2164,-61.2103,CNT,Charata Airport
-34.995728,-62.999725,VGS,General Villegas Airport
-40.817699,-68.074699,LMD,Los Menucos Airport
-40.700001,-66.150002,VCF,Valcheta Airport
-40.7781,-62.9803,CPG,Carmen de Patagones Airport
-9.88333333333,149.483333333,ARP,Aragip Airport
-6.009722222220001,150.368611111,ASZ,Asirim Airport
-71.5264,8.799459,WFR,(Duplicate)Wolf's Fang Runway
-24.1129,152.7156,LYT,Lady Elliot Island Airstrip
-28.034548,123.81506,GYZ,Gruyere Airport
-12.1456,142.149369,AGW,Agnew Airport
-19.2908,136.078995,AYD,Alroy Downs Airport
-13.1981,136.227005,BYX,Baniyala Airport
-15.548299789428713,130.96200561523438,COB,Coolibah Airport
-31.894399642944336,132.29600524902344,CRJ,Coorabie Airport
-15.50189971923828,128.53399658203125,CRY,Carlton Hill Airport
-17.947999954223633,135.91600036621094,CSD,Cresswell Downs Airport
-23.761699676513672,141.14500427246094,DYM,Diamantina Lakes Airport
-20.059999465942383,148.88099670410156,HIS,Hayman Island Resort Seaplane Base
-15.685799598693848,145.21499633789062,HLV,Helenvale Airport
-17.39780044555664,124.3550033569336,KBD,Kimberley Downs Airport
-25.8428,133.292007,KGR,Kulgera Airport
-14.1442,130.091003,PEP,Peppimenarti Airport
-18.95330047607422,135.2010040283203,RDA,Rockhampton Downs Airport
-19.166400909423828,128.1739959716797,SSK,Sturt Creek Airport
-21.510299682617188,119.36199951171876,SWB,Shaw River Airport
-17.363300323486328,143.75,TWP,Torwood Airport
-17.7869,127.669998,ZVG,Springvale Airport
-4.122278,144.853292,AWR,Awar Airport (unusable)
38.748317,105.58416,AXF,Alxa Left Banner Bayanhot Airport
-8.244832,124.219108,AXO,Pantar Kabir Airport
-4.10111111111,141.67,AMF,Ama Airport
-6.229978,144.664181,UAE,Mount Aue Airport
-9.13867,148.390701,AFR,Afore Airstrip
-9.927715,149.389951,AUP,Agaun Airport
-3.143611,142.346806,ATP,Aitape Airport
-7.342777777779999,141.2675,AIH,Aiambak Airport
-3.586,141.214333333,AMU,Amanab Airport
-7.13722222222,145.744722222,ADC,Andakombe Airport
-5.145699978,144.7307003,AIE,Aiome Airport
-5.38166666667,143.924722222,KPM,Kompiam Airport
-4.21566666667,142.823166667,AUJ,Ambunti Airport
-8.013414,142.752099,AWB,Awaba Airport
-7.350805,146.193994,AEK,Aseki Airport
-6.33805555556,145.904166667,AYU,Aiyura Airport
-7.496955,144.821756,VMU,Baimuru Airport
-5.863611111110001,146.4925,BCP,Bambu Airport
-9.10777777778,147.666722222,BNM,Bodinumu Airport
-7.8485,143.2433,BMZ,Bamu Airport
-6.34722222222,146.942222222,BDZ,Baindoung Airport
-8.85805555556,141.259444444,BSP,Bensbach Airport
-3.0216666666700003,141.165277778,BWP,Bewani Airport
-5.422299,154.672698,BUA,Buka Airport
-5.3305602073700005,151.007995605,BAA,Bialla Airport
-8.05000019073,142.932998657,OPU,Balimo Airport
-6.37316666667,144.637,BMH,Bomai Airport
-7.743611111110001,147.020555556,BPD,Bapi Airstrip
-5.526389,141.744583,BPK,Biangabip Airport
-7.6693,146.7594,BRP,Biaru Airport
-7.216286671410001,146.649541855,BUL,Bulolo Airport
-9.6425,149.303889,XBN,Biniguni Airport
-4.80662,144.714996,CVB,Chungribu Airport
-5.455231,148.422289,CGC,Cape Gloucester Airport
-6.024290084838867,144.9709930419922,CMU,Chimbu Airport
-10.5627777778,150.690694444,SQT,China Strait Airstrip
-6.30861111111,141.905555556,DBP,Debepare Airport
-6.14472222222,147.107222222,DER,Derim Airport
-5.742222222220001,145.2275,BNT,Bundi Airport
-4.6204,143.4516,MDM,Munduku Airport
-8.5336,142.5049,KPF,Kondobol Airport
-6.1546,146.6772,DNU,Dinangat Airport
-10.7009,150.7218,DOI,Doini Airport
-9.461855,147.920907,DOO,Dorobisoro Airport
-9.08676,143.207993,DAU,Daru Airport
-8.271612,147.071899,KRU,Kerau Airport
-9.447,148.7628,EMS,Embessa Airport
-3.883986,141.792234,XYR,Edwaki Airport
-1.653949991,149.9757667,EMI,Emirau Airport
-9.15380555556,147.659805556,EFG,Efogi Airport
-8.71411111111,141.644444444,MHY,Morehead Airport
-5.0412,141.6779,EPT,Eliptamin Airport
-6.9179,146.1053,EGA,Engati Airstrip
-9.1234,148.0415,EMO,Emo River Airstrip
-8.2538,146.9747,ERU,Erume Airport
-6.1364,149.1183,MFZ,Meselia Airport
-7.237257,141.1063222,BOT,Bosset Airport
-6.60646315446,143.900213242,ERE,Erave Airport
-6.284181,147.582371,SWE,Siwea Airport
-8.54927777778,147.085833333,FNE,Fane Airport
-5.208,141.6988,FRQ,Feramin Airport
-6.621750109,147.85405,FIN,Finschhafen Airport
-4.610468,141.960138,FAQ,Frieda River Airport
-6.3933,142.4408,FUM,Fuma Airport
-6.081689834590001,145.391998291,GKA,Goroka Airport
-9.2263,148.4949,GEW,Gewoia Airport
-8.1286,146.8722,GUG,Guari Airport
-7.980713,147.213461,GRL,Garasa Airport
-7.875625,147.141266,GAR,Garaina Airport
-9.225918,152.944352,GAZ,Guasopa Airport
-5.527716614,151.5733333,GOE,Gonaili Airport
-10.3114995956,150.333999634,GUR,Gurney Airport
-6.053196,145.959047,GAP,Gusap Airport
-8.80453968048,148.309005737,PNP,Girua Airport
-6.1028,141.7393,GBC,Gasuke Airport
-6.27111005783,150.330993652,GMI,Gasmata Island Airport
-3.560504,142.217307,AKG,Anguganak Airport
-3.90224289894,141.170516968,GVI,Green River Airport
-9.0021,148.2364,GOC,Gora Airstrip
-6.32,142.4893,HBD,Habi Airport
-7.4223,146.4276,HNI,Heiweni Airport
-3.69838,143.057902,HYF,Hayfields Airport
-6.2457,142.1771,HNN,Honinabi Airport
-5.463846,150.407327,HKN,Hoskins Airport
-6.9406,143.059,HIT,Haivaro Airport
-7.392994,146.003487,HWA,Hawabango Airport
-4.49972009659,154.225997925,IIS,Nissan Island Airport
-6.22663,147.244,IDN,Indagen Airport
-6.7524,146.1072,IMN,Imane Airport
-5.671,141.03,KGM,Kungim Airport
-3.328,141.1573,IMD,Imonda Airport
-6.305417,155.728139,KIE,Aropa Airport
-6.2782,143.9944,IAL,Ialibu Airport
-8.2836,142.8697,WSA,Wasua Airport
-4.689522,149.440112,WIU,Witu Airport
-4.903055555560001,141.620833333,MPX,Miyanmin Airport
-8.5289,147.4603,KGH,Yongai Airport
-4.74708333333,145.007083333,JOP,Josephstaal Airport
-8.505820274353027,151.08099365234375,LSA,Losuia Airport
-6.15547222222,147.191472222,KBM,Kabwum
-6.19217,149.54783,KDR,Kandrian Airport
-7.64925,145.956944444,KMF,Kamina Airport
-5.3883,142.4977,KPA,Kopiago Airport
-8.150694444440001,146.834,KAQ,Kamulai Airport
-6.1257100105285645,141.28199768066406,UNG,Kiunga Airport
-5.2903,144.7072,KNE,Kanainj Airport
-7.42438,144.250076,KRI,Kikori Airport
-7.96361017227,145.770996094,KMA,Kerema Airport
-8.884679,147.730957,KKD,Kokoda Airport
-9.13591666667,147.669444444,KGW,Kagi Airport
-4.557,145.9404,KRX,Kar Kar Airport
-7.50025,146.033833333,KZF,Kaintiba Airport
-7.135083,143.276111,KUQ,Kuri Airport
-2.57940006256,150.807998657,KVG,Kavieng Airport
-7.977006912229999,142.823577881,KWO,Kawito Airport
-3.04361009598,152.628997803,LNV,Londolovit Airport
-5.7204,148.0566,LAB,Lab Lab Airport
-5.83277777778,145.097222222,KEG,Keglsugl Airport
-9.006528,142.698056,KII,Kibuli Airstrip
-5.5319444444400006,149.734166667,LGN,Linga Linga Airport
-7.22313888889,146.227083333,LNM,Langimar Airport
-6.3344,146.6458,LWI,Lowai Airport
-6.3917,146.3434,LPN,Leron Plains Airport
-8.2799,146.2765,LNG,Lese Airport
-6.384611111110001,147.368638889,LNC,Lengbati Airport
-3.47683951134,142.041292191,LMI,Lumi Airport
-5.3604,147.0177,LSJ,Long Island Airport
24.467,54.6103,AYM,Yas Island Seaplane Base
-9.1908,147.6219,MRM,Manari Airport
-7.74,147.59,OBM,Morobe Airport
-7.21166666667,146.019361111,MYX,Menyamya Airport
-5.20707988739,145.789001465,MAG,Madang Airport
-5.828212,144.299412,HGU,Mount Hagen Kagamuga Airport
-6.47166666667,147.441138889,MXK,Mindik Airport
-6.532222222220001,147.651166667,MPG,Makini Airport
-6.280859,142.420775,GUV,Mougulu Airport
-6.14774,143.656998,MDU,Mendi Airport
-2.06189,147.423996,MAS,Momote Airport
-8.07138888889,146.155472222,MLQ,Malalaua Airport
-8.70916666667,142.649722222,MQO,Malam Airport
-6.36332988739,143.238006592,MXH,Moro Airport
-10.6892004013,152.837997437,MIS,Misima Island Airport
-4.02343055556,153.657277778,MKN,Malekolon Airport
-6.9736,145.8849,MWG,Marawaka Airport
-2.81138888889,151.991111111,MPU,Mapua(Mabua) Airport
-5.837,146.4533,NKN,Nankina Airport
-7.538888888890001,145.905,KEX,Kanabea Airport
-9.14355555556,147.68425,NDN,Nadunumu Airport
-1.46055555556,143.064722222,AUI,Aua Island Airport
-6.567778,144.703058,GBF,Negarbo(Negabo) Airport
-5.577778,151.792333,MFO,Manguna Airport
-3.4075,154.7383,NUG,Nuguria Airstrip
-9.47375,148.329416667,NDI,Namudi Airport
-6.3819,146.9859,KSB,Kasonombe Airport
-5.84061111111,143.507222222,KDP,Kandep Airport
-6.32183,145.070667,NMN,Nomane Airport
-5.7243,147.8667,BXZ,Bunsil Airport
-3.676651,142.484334,UKU,Nuku Airport
-3.6695,152.438,ATN,Namatanai Airport
-6.2412,145.2424,NBA,Nambaiyufa Airport
-6.569803,146.725977,LAE,Nadzab Airport
-7.590622421369999,141.324262619,OBX,Obo Airport
-6.2239,147.2152,KGB,Konge Airport
-5.55666666667,141.032777778,OKV,Okao Airport
-6.46675,147.364166667,OGE,Ogeranang Airport
-5.2261,142.2259,OKP,Oksapmin Airport
-7.3984,145.8827,HOC,Komako Airport
-5.73116666667,144.846,KQL,Kol Airport
-7.82777777778,147.080638889,OSE,Omora Airport
-6.0682,142.8598,KOM,Komo-Manda Airport
-8.450716,147.209195,KSP,Kosipe Airport
-7.2714,143.5952,KCJ,Komaio Airport
-5.3897222222200005,141.515277778,OLQ,Olsobip Airport
-5.6952,142.7441,KDE,Koroba Airport
-4.794727,151.696195,OPB,Open Bay Airport
-5.372407,142.975774,PLE,Paiela Airport
-7.0226,141.5605,PGB,Pangoa Airport
-6.445138888890001,147.515833333,PDI,Pindiu Airport
-4.67666666667,142.540138889,APR,April River Airport
-6.386,144.1084,PGN,Pangia Airport
-6.49916666667,143.510277778,PMP,Pimaga Airport
-7.979,143.1694,MPF,Mapoda Airport
-9.7469,149.4766,PMN,Pumani Airport
-6.475161,143.987222,WLU,Walluanda Airport
-9.44338035583496,147.22000122070312,POM,Port Moresby Jacksons International Airport
-4.59666666667,143.5225,KRJ,Karawari Airstrip
-4.7748,141.0133,TLP,Tumolbil Airport
-8.3038,147.1659,SPH,Sopu Airport
-8.67436111111,147.262416667,ONB,Ononge Airport
-6.0908,147.5955,SXA,Sialum Airport
-8.065111111110001,147.332027778,KIQ,Kira Airport
-9.97111111111,149.832222222,RBP,Raba Raba Airport
-5.89722222222,141.271666667,RMN,Rumginae Airport
-6.4921,144.823,KMR,Karimui Airport
-8.817000054,146.5243833,RKU,Kairuku Airport
-5.13,143.4829,MWI,Maramuni Airport
-7.83466666667,146.5335,KOR,Kakoro(Koroko) Airstrip
-4.3615,141.785,MRH,May River Airstrip
-6.10444444444,142.278333333,SBE,Suabi Airport
-5.62713888889,146.462777778,SDI,Saidor Airport
-2.66222222222,151.997777778,NIS,Simberi Airport
-9.59305555556,148.636111111,SFU,Safia Airport
-9.07355555556,148.38925,SIL,Sila Airport
-5.5765,155.0489,SBV,Sabah Airport
-5.278611111110001,144.544722222,SIM,Simbai Airport
-5.12583333333,144.323611111,SGK,Sengapi Airstrip
-9.96452777778,151.161861111,SXH,Sehulea Airport
-5.315,141.752,SBC,Selbang Airport
-6.075277777779999,146.811111111,SMH,Sapmanga Airport
-3.8821,143.6734,SPV,Sepik Plains Airport
-7.6217,142.868,TDS,Sasereme Airport
-8.0466,141.7222,SKC,Suki Airport
-5.9701,148.8543,SXW,Sauren Airport
-6.13955555556,147.279166667,SWG,Satwag Airport
-6.345,147.591,MBV,Masa Airport
-5.845,142.947998,TIZ,Tari Airport
-5.280471,141.227576,TBG,Tabubil Airport
-5.12608,141.641922,TFM,Telefomin Airport
-9.1586,148.0686,TDB,Tetebedi Airport
-11.3311111111,153.202916667,TGL,Tagula Airport
-5.117249,141.418076,TFB,Tifalmin Airport
-8.35666666667,146.989166667,TPI,Tapini Airport
-4.34046,152.380005,RAB,Tokua Airport
-5.243667,142.165194,TKW,Tekin Airport
-3.600556,141.051667,KDQ,Kamberatoro Airport
-5.9553,146.5595,TEP,Tep Tep Airport
-6.46666666667,145.532222222,TBQ,Tarabo Airport
-7.0695,146.1272,TSW,Tsewi Airport
-5.614,141.0421,TRJ,Tarakbits Airport
-9.07595443726,149.319839478,TFI,Tufi Airport
-4.196633,143.519222,TBE,Timbunke Airport
-7.4463,146.1067,TWY,Tawa Airport
-8.16972222222,146.194444444,TEO,Terapo Airport
-7.6808,146.5503,TKB,Tekadu Airport
-7.0214,145.966,UMC,Umba Airport
-9.5162,148.5591,URU,Uroubi Airport
-6.72916666667,155.683333333,UBI,Buin Airport
-5.731111111110001,148.445277778,AUV,Aumo Airport
-5.2808,141.5411,GLP,Gulgubip Airport
-8.5411,142.6503,UPR,Upiara Airport
-5.372361111110001,141.623888889,KUX,Kuyol Airport
-6.0178,150.9557,UVO,Uvol Airport
-5.2726,150.0089,TLW,Talasea Airport
-4.0165,143.1329,TCJ,Torembi Airport
-2.6926,141.3028,VAI,Vanimo Airport
-6.6552,155.4326,TON,Tonu Airport
-1.73611111111,142.836666667,WUV,Wuvulu Island Airport
-6.98944444444,145.075111111,WAO,Wabo Airport
-6.1325,146.467777778,WTT,Wantoat Airport
-5.635293,143.892231,WBM,Wapenamanda Airport
-6.9523,142.6557,WAJ,Wawoi Falls Airport
-9.3375,149.155556,AGL,Wanigela Airport
-4.8961,145.3213,WNU,Wanuma Airport
-9.3376,150.5093,WBC,Wapolu Airport
-3.58383011818,143.669006348,WWK,Wewak International Airport
-6.796861111110001,145.891944444,WOA,Wonenara Airport
-5.8603,155.2223,WKN,Wakunai Airport
-5.96170944919,147.19822526,WSU,Wasu Airport
-8.545833,147.2525,WTP,Woitape Airport
-7.345556,146.718611,WUG,Wau Airport
-7.548,146.188,YVD,Yeva Airport
-7.75,146.9273,SMJ,Sim Airport
-4.98083019257,152.009994507,TLO,Tol Airport
-8.78822,142.882004,WPM,Wipim Airport
-8.6184,141.1381,WEP,Weam Airport
6.86,81.82388888890002,AYY,Arugam Bay SPB
-6.09,147.0117,KYX,Yalumet Airport
-5.10972222222,143.917666667,YEQ,Yenkis(Yankisa) Airport
-4.0949,143.3838,TCK,Tinboli Airport
-4.855941,141.220165,LNF,Munbil Airport
-9.632916666669995,148.048055556,RAX,Oram Airport
-4.6280555555600005,141.094166667,KPE,Yapsiei Airport
-6.6015,146.1813,KSX,Yasuru Airport
-6.9522222222200005,146.61625,ZEN,Zenag Airport
-4.52988888889,153.054444444,SWR,Silur Airport
-6.0491,149.337,WUM,Wasum Airport
-2.99944444444,142.0445,SIZ,Sissano Airport
-2.91555555556,141.297305556,OSG,Ossima Airport
40.494884,49.977065,ZXT,Zabrat Airport
36.1916007996,-113.092002869,HAE,Lava Falls Heliport
-10.2991666667,149.338333333,AZB,Amazon Bay Airport
-4.88333333333,149.133333333,BAJ,Bali Airport
-21.8533,35.438301,BCW,Benguera Island Airport
-13.7808333333,136.201666667,BCZ,Milyakburra Airport
42.454899,26.3522,JAM,Bezmer Air Base
68.721802,-52.784698,JEG,Aasiaat Airport
72.88703,-55.596287,AOQ,Aappilattoq Heliport
65.612296,-37.618335,AGM,Tasiilaq Heliport
60.46445,-45.56917,LLU,Alluitsup Paa Heliport
60.148357,-44.286916,QUV,Aappilattoq Heliport
61.176828,-48.419698,JRK,Arsuk Heliport
60.597376,-45.382445,QUW,Ammassivik Heliport
67.940663,-53.62187,QGQ,Attu Heliport
61.1605,-45.425999,UAK,Narsarsuaq International Airport
68.822816,-51.173447,JCH,Qasigiannguit Heliport
70.743103,-22.650499,CNP,Neerlerit Inaat Airport
60.61972,-45.914062,QFG,Eqalugaarsuit Heliport
60.004694,-44.656935,QFN,Narsarmijit Heliport
61.22896,-48.09698,JGR,Kangilinnguit Heliport
64.191066,-51.67914,GOH,Nuuk International Airport
69.251182,-53.514876,JGO,Qeqertarsuaq Heliport
70.498145,-51.303084,IKE,Ikerasak Heliport
68.147226,-53.173528,QFI,Iginniarfik Heliport
68.140881,-53.441459,QRY,Ikerassaarsuk Heliport
69.080915,-51.114315,XIQ,Ilimanaq Heliport
73.199895,-56.010817,IUI,Innarsuit Heliport
65.547792,-38.976552,IOQ,Isortoq Heliport
68.634253,-51.832262,QJI,Ikamiut Heliport
60.715684,-46.029919,JJU,Qaqortoq Heliport
69.243202,-51.057098,JAV,Ilulissat Airport
68.312657,-53.460208,QPW,Kangaatsiaq Heliport
65.573601,-37.1236,KUS,Kulusuk Airport
65.863935,-36.997919,KUZ,Kuummiut Heliport
74.57805,-57.226828,KHQ,Kullorsuaq Heliport
72.381092,-55.536586,KGQ,Kangersuatsiaq Heliport
68.857926,-53.123295,QJE,Kitsissuarsuit Heliport
71.241944,-53.562877,IOT,Illorsuit Heliport
65.412498,-52.9394,JSU,Maniitsoq Airport
60.141884,-45.232977,JNN,Nanortalik Heliport
71.538769,-53.205038,JUU,Nuugaatsiaq Heliport
60.917283,-46.059923,JNS,Narsaq Heliport
70.789385,-53.662945,NIQ,Niaqornat Heliport
74.109853,-57.065037,NSQ,Nuussuaq Heliport
62.014736,-49.670937,JFR,Paamiut Airport
69.995861,-51.300917,PQT,Qeqertaq Heliport
77.488602,-69.388702,NAQ,Qaanaaq Airport
60.780959,-47.156249,QJH,Qassimiut Heliport
70.488229,-21.97168,OBY,Ittoqqortoormiit Heliport
67.010446,-50.715294,SFJ,Kangerlussuaq International Airport
65.90592,-36.378254,SGG,Sermiligaaq Heliport
77.786517,-70.638657,SRK,Siorapaluk Heliport
60.537778,-46.024722,QOQ,Saarloq Heliport
66.951302,-53.729301,JHS,Sisimiut Airport
70.811172,-51.63129,SAE,Saattut Heliport
76.018613,-65.117683,SVR,Savissivik Heliport
73.373055,-56.06028,TQA,Tasiusaq Heliport
76.53063,-68.700541,THU,Pituffik Space Base
65.892027,-37.783409,TQI,Tiniteqilaaq Heliport
60.194305,-44.813447,XEQ,Tasiusaq Heliport
72.790199,-56.1306,JUV,Upernavik Airport
70.680428,-52.11163,UMD,Uummannaq Heliport
70.7342,-52.696201,JQA,Qaarsut Airport
71.049438,-51.890016,JUK,Ukkusissat Heliport
28.9786,-113.560997,BHL,Bahía de los Ángeles Airport
-23.363333,141.562778,BHT,Brighton Downs Airport
65.656573,-18.072018,AEY,Akureyri International Airport
65.641296,-23.5462,BIU,Bildudalur Airport
65.516769,-13.81578,BGJ,Borgarfjörður eystri Airport
66.02189636230469,-14.824399948120115,BJD,Bakkafjörður Airport
65.644997,-20.2875,BLO,Blönduós Airport
64.790037,-14.043927,BXV,Breiðdalsvík Airport
64.642372,-14.277297,DJU,Djúpivogur Airport
65.2833023071289,-14.401399612426758,EGS,Egilsstaðir Airport
64.931456,-14.047957,FAS,Fáskrúðsfjörður Airport
63.874699,-16.6411,FAG,Fagurhólsmýri Airport
64.991402,-23.224701,GUU,Grundarfjörður Airport
65.9953,-21.3269,GJR,Gjögur Airport
66.5458,-18.0173,GRY,Grímsey Airport
65.704697,-21.6964,HVK,Hólmavík Airport
64.295601,-15.2272,HFN,Hornafjörður Airport
66.0141804294,-23.4416913986,FLI,Holt Airport
65.952301,-17.426001,HZK,Húsavík Airport
66.05000305175781,-23.69610023498535,HLO,Ingjaldssanður Airport
66.058098,-23.1353,IFJ,Ísafjörður Airport
63.985001,-22.6056,KEF,Keflavik International Airport
66.310799,-16.4667,OPA,Kópasker Airport
65.73169708249999,-19.5727996826,SAK,Sauðárkrókur Airport
65.131897,-13.7464,NOR,Norðfjörður Airport
66.083298,-18.6667,OFJ,Ólafsfjörður Airport
65.555801,-23.965,PFJ,Patreksfjörður Airport
65.45262908935547,-22.20611572265625,RHA,Reykhólar Airport
64.9114,-23.823099,OLI,Rif Airport
66.406403,-15.9183,RFN,Raufarhöfn Airport
64.128732,-21.93759,RKV,Reykjavík Domestic Airport
65.6558,-16.9181,MVA,Reykjahlíð Airport
66.137847,-18.908157,SIJ,Siglufjörður Airport
65.058851,-22.764616,SYK,Stykkishólmur Airport
65.8703,-23.559999,TEY,Þingeyri Airport
66.218498,-15.3356,THO,Þórshöfn Airport
63.42430114746094,-20.27890014648437,VEY,Vestmannaeyjar Airport
65.720596,-14.8506,VPN,Vopnafjörður Airport
11.1994444444,28.5230555556,BJE,Baleela Airport
19.8730555556,56.0677777778,BJQ,Bahja Airport
6.431,79.996,BJT,Bentota River Waterdrome
42.5728,21.035801,PRN,Priština Adem Jashari International Airport
-3.983363,39.730982,BMQ,Bamburi Airport
57.088799,-134.833146,BNF,Baranof Warm Springs Float and Seaplane Base
-6.426631,146.826697,BNV,Boana Airport
-13.654426,-63.704718,BVL,Baures Airport
-3.3834,153.2812,BOV,Boang Airport
58.4552,-135.884995,BQV,Bartlett Cove Seaplane Base
-6.8827,-38.61583,CJZ,Pedro Vieira Moreira Airport
-14.907885,-40.914804,VDC,Glauber de Andrade Rocha Airport
-9.319906,-50.328536,CMP,Santana do Araguaia Airport
-13.025154,-46.884107,AAI,Arraias Airport
-14.8105,-39.290401,ITN,Tertuliano Guedes de Pinho Airport
-21.468226,-42.727076,LEP,Leopoldina Airport
-1.820006,-44.864065,CPU,Cururupu Airport
-33.502038,-53.344911,CTQ,Santa Vitória do Palmar Airport
-9.08533,-45.955603,APY,Alto Parnaíba Airport
-10.305833,-58.489445,JRN,Juruena Airport
-10.464722,-50.518612,STZ,Santa Terezinha Airport
-14.995499,-59.945662,MTG,Vila Bela da Santíssima Trindade Airport
-1.917,-54.7231,ALT,Alenquer Municipal Airport
25.767,-79.25,NSB,Bimini North Seaplane Base
-15.6725,47.061667,BSV,Besakoa Airport
5.79,101.15,BTZ,Betong International Airport
-23.9897,21.758101,HUK,Hukuntsi Airport
-6.396944444440001,146.881666667,BWJ,Bawan Airport
-16.943,177.368,BXL,Blue Lagoon Seaplane Base
54.439999,30.2967,TXC,Orsha Airport - Balbasovo Air Base
64.077678,-141.122088,BYA,Boundary Airport
7.36916666667,-9.99372222222,BYL,Bella Yella Airport
6.9294444444400005,79.85416666670001,BYV,Beira Lake Seaplane Base
17.269603,-88.776496,BCV,Hector Silva Airstrip
16.519369,-88.407913,BGK,Big Creek Airport
17.735015,-88.032862,CUK,Caye Caulker Airport
17.683792,-88.044985,CYC,Caye Chapel Airport
18.3822,-88.411903,CZH,Corozal Airport
16.98251,-88.230988,DGA,Dangriga Airport
16.53456,-88.441615,INB,Independence Airport
17.004299,-88.304199,MDB,Melinda Airport
18.046767,-88.583858,ORZ,H.E Alfredo Martinez (Tower Hill) Airstrip
16.1024,-88.808296,PND,Punta Gorda Airport
18.3561,-88.130798,SJX,Sartaneja Airport
17.9139,-87.9711,SPR,John Greif II Airport
17.185898,-89.009936,SQS,Matthew Spain Airport
18.2721004486084,-88.456298828125,STU,Santa Cruz Airport
16.728338,-88.369174,SVK,Silver Creek Airport
17.517239,-88.195775,TZA,Sir Barry Bowen Municipal Airport
-21.5411,35.4729,BZB,Bazaruto Island Airport
-17.6925,45.0888333333,BZM,Bemolanga Airport
55.390002,-111.1198,PFM,Primrose Airport
58.474312,-62.653999,YSV,Saglek Airport
50.409447,-125.131617,YRR,Stuart Island Airstrip
71.324167,-79.356944,YMV,Mary River Aerodrome
51.669733,-128.08181,YHC,Hakai Passage Water Aerodrome
48.89225,-123.39215,YMF,Montague Harbour Seaplane Base
39.71029,-121.616528,PYS,Paradise Skypark Airport
48.75,-123.233002,YBW,Bedwell Harbour Seaplane Base
49.155,-125.91,YTP,Tofino Harbour Seaplane Base
49.8636,-119.568045,CBA,Alpine Heliport
49.169813,-123.933845,ZNA,Nanaimo Harbour Water Aerodrome
49.055599,-117.609001,YZZ,Trail Regional Airport
50.122504,-120.745368,YMB,Merritt Airport
50.049999,-125.25,YHH,Campbell River Seaplane Base
50.1436004639,-122.948997498,YWS,Whistler/Green Lake Water Aerodrome
48.835967,-125.137453,YBF,Bamfield Seaplane Base
50.3923,-125.1372,YIG,Big Bay Seaplane Base
51.625797,-124.144478,CJH,Chilko Lake (Tsylos Park Lodge) Airport
49.623785,-124.024884,YPT,Pender Harbour Seaplane Base
52.3666992188,-127.717002869,ZOF,Ocean Falls Seaplane Base
49.679237,-124.98064,YCA,Courtenay Airpark
49.03689956665,-116.49800109863,CFQ,Creston Valley Regional Airport - Art Sutcliffe Field
52.451501,-125.303776,YAA,Anahim Lake Airport
50.1654600485,-120.171273351,DGF,Douglas Lake Airport
57.2238998413,-111.418998718,JHL,Fort MacKay/Albian Aerodrome
49.92,-126.655,ZTS,Tahsis Seaplane Base
48.754534,-123.709702,DUQ,Duncan Airport
49.4606018066,-123.71900177,YHS,Sechelt-Gibsons Airport
53.7999992371,-130.432998657,YKK,Kitkatla Seaplane Base
53.25282,-132.074214,ZQS,Queen Charlotte City Seaplane Base
49.887335,-124.53372,WPL,Powell Lake Seaplane Base
49.337456,-124.393086,XQU,Qualicum Beach Airport
50.57348,-127.027702,YMP,Port McNeill Airport
51.683985,-127.264044,YRN,Rivers Inlet Seaplane Base
50.885359,-126.831069,YTG,Sullivan Bay Seaplane Base
50.07137,-124.98362,YMU,Mansons Landing Seaplane Base
48.852241,-123.301982,YAV,Mayne Island Seaplane Base
52.150002,-128.08299,YSX,Bella Bella/Shearwater Seaplane Base
48.8545,-123.4969,YGG,Ganges Seaplane Base
53.416698,-129.25,YTB,Hartley Bay Seaplane Base
50.775258,-121.321314,YZA,Cache Creek-Ashcroft Regional Airport
52.185001,-128.156994,ZEL,Bella Bella (Campbell Island) Airport
-18.917777777800005,125.537777778,CBC,Cherrabun Airport
49.321899,-124.931,YPB,Alberni Valley Regional Airport
56.966702,-130.25,YBO,Bob Quinn Lake Airport
61.956901550293,-128.20300292969,TNS,Tungsten (Cantung) Airport
55.025001525879,-120.93499755859,TUX,Tumbler Ridge Airport
52.567377,-55.784883,YWM,Williams Harbour Airport
54.9105,-59.78507,YSO,Postville Airport
53.469836,-55.787501,YBI,Black Tickle Airport
52.765774,-56.11237,YHG,Charlottetown Airport
52.372799,-55.673901,YFX,St. Lewis (Fox Harbour) Airport
52.528099060058594,-56.28609848022461,YHA,Port Hope Simpson Airport
54.1796989440918,-58.45750045776367,YRG,Rigolet Airport
-6.468027,16.805012,KGN,Kasongo-Lunda Airport
64.5113983154,-110.289001465,DVK,Diavik Airport
68.1252746582,-106.585281372,JOJ,Doris Lake
56.081401825,-118.434997559,ZFW,Fairview Airport
53.319199,-117.752998,YJP,Jasper-Hinton Airport
63.13169860839844,-117.24600219726562,YLE,Whatì Airport
53.265800476074,-114.95999908447,YDC,Drayton Valley Industrial Airport
57.0555992126,-111.573997498,NML,Fort McMurray / Mildred Lake Airport
55.695301,-111.278999,CFM,Conklin (Leismer) Airport
7.964938,23.526018,KWD,Kavadja Airport
62.5980987549,-111.542999268,GSL,Taltheilei Narrows Airport
63.181098938,-130.20199585,XMP,Macmillan Pass Airport
66.703053,-119.716816,DAS,Great Bear Lake Airport
57.275833,-110.976666,YFI,Fort Mackay / Firebag
55.7094,-117.094002,YOE,Donnelly Airport
51.057498931885,-113.62400054932,TIL,Cheadle Airport
-1.4483300447464,15.073300361633,OKG,Okoyo Airport
55.478802,-133.147995,CGA,Craig Seaplane Base
16.1941,122.0651,CGG,Casiguran Airport
63.435198,-109.144812,GHK,Gahcho Kue
65.485496521,-144.610992432,CHP,Circle Hot Springs Airport
56.2486000061,-101.304000854,LRQ,Laurie River Airport
58.662498474121,-103.53800201416,YDJ,Hatchet Lake Airport
60.291900634766,-102.50199890137,YDU,Kasba Lake Airport
62.7,-109.167,YFL,Fort Reliance Seaplane Base
58.3911018372,-109.51599884,XCL,Cluff Lake Airport
54.915298,-94.798103,YKE,Knee Lake Airport
52.70859909057617,-88.54190063476562,SUR,Summer Beaver Airport
61.870315,-158.137636,CKD,Crooked Creek Airport
52.836700439453,-104.06700134277,YTT,Tisdale Airport
53.84920120239258,-89.57939910888672,YAX,Wapekeka Airport
52.893902,-89.2892,WNN,Wunnumin Lake Airport
52.6067008972,-90.3768997192,YBS,Opapimiskan Lake Airport
52.4900016784668,-92.97109985351562,YNO,North Spirit Lake Airport
48.5978,-122.9979,CKR,Crane Island Airstrip
60.5438995361,-145.727005005,CKU,Cordova Municipal Airport
60.315719,-103.131324,YDW,North of Sixty Airport
64.066495,-141.951342,CKX,Chicken Airport
-2.2468,-49.56,CMT,New Cametá Airport
-17.8331,35.3341,CMZ,Caia Airport
29.376484,104.625789,ZKL,Zigong Fengming Airport
31.73842,106.644872,BZX,Bazhong Enyang Airport
33.708533,110.249284,DFA,Shangluo Airport
24.9786,113.420998,HSC,Shaoguan Danxia Airport
26.856899,114.737,JGS,Jinggangshan Airport
30.705535,120.679779,JNH,Jiaxing Airport / Jiaxing Air Base
48.38745,124.43127,DWS,Morin Dawa Banner Airport
37.91305,114.59166,LCT,Shijiazhuang Luancheng Airport
30.25521,114.062805,WHN,Wuhan Hannan Municipal Airport
39.48595,116.37236,NAY,Beijing Nanjiao Military Airport
45.59886,126.65808,PFA,Harbin Pingfang Airport
37.80473,120.80954,PNJ,Penglai Shahekou Airport
37.61055,117.885699,CBZ,Binzhou Dagao General Aviation Airport
28.604567,86.798,DDR,Rikaze Dingri Airport
37.661333,75.288877,HQL,Tashikuergan Hongqilafu Airport
29.122619,120.24289,HEW,Dongyang Hengdian General Airport
29.360905,119.180829,JDE,Jiande Qiandaohu General Airport
46.12779,125.77354,HLJ,Zhaodong Beidahuang General Airport
37.50312,112.424126,TYC,Taiyuan Yaocheng Airport
46.01761,85.657436,WRH,Wuerhe Airport
25.960236,116.077016,JRJ,Ganzhou Ruijin Airport
30.397898,81.13317,APJ,Ali Pulan Airport
43.088477,81.223013,ZFL,Zhaosu Tianma Airport
38.588095,106.539788,YEH,Yinchuan Yueyahu Airport
24.26652,97.9048,LCS,Longchuan Guangsong Airport
26.64518,99.54419,LFH,Lanping Fenghua General Airport
22.519296,113.361307,ZGN,Zhongshan Ferry Port
33.560777,115.911859,BZJ,Bozhou Airport (under construction)
41.656944,110.3125,BKV,Bailing Airport
42.976395,83.995543,HJB,Hejing Bayinbuluke Airport
38.1712,107.3905,OTQ,Otog Front Banner Oljoq Airport
44.166086,89.55014,JBK,Qitai Jiangbulake Airport
27.205843,103.691511,ZAT,Zhaotong Zhaoyang Airport （Not fully opened)
28.3727,119.839,LIJ,Lishui Airport
28.700972,116.107694,YHJ,Nanchang Yaohu Airport
39.03139,107.98889,OTO,Otog Banner Wulan Airport
33.165808,117.057295,BFY,Bengbu Tenghu Airport (U.C.)
53.965599060058594,-91.0271987915039,XBE,Bearskin Lake Airport
55.913898,-61.184399,YNP,Natuashish Airport
48.6269,-85.223297,YWR,White River Seaplane Base
45.2575,-79.829697,YPD,Parry Sound Area Municipal Airport
44.6394004822,-75.7502975464,XBR,Brockville - Thousand Islands Regional Tackaberry Airport
53.01250076293945,-89.85530090332031,KIF,Kingfisher Lake Airport
-1.456361,-72.801086,LCR,Virgilio Barco Vargas (La Chorrera) Airport
46.421233,-84.096478,YEB,Bar River Airport
-5.44833333333,152.081944444,CPI,Cape Orford Airport
45.173302,-80.137497,YSI,Parry Sound/Frying Pan Island-Sans Souci Seaplane Base
52.9911,-92.836403,KEW,Keewaywin Airport
9.693365,-85.091216,ACO,Cóbano Airport
55.355598,-110.637001,KFM,Kirby Lake Airport
43.928235,-59.948986,YSA,Sable Island Airport.
49.0303001404,-77.0171966553,YLS,Lebel-sur-Quevillon Airport
63.593601,-110.905998,YNX,Snap Lake Airport
48.917198181152,-79.178596496582,SSQ,La Sarre Airport
53.80559921264648,-78.91690063476562,YKU,Chisasibi Airport
50.67440032958984,-59.38359832763672,ZTB,Tête-à-la-Baleine Airport
50.195801,-61.2658,ZKG,Kégashka Airport
49.9434,-71.138,YWQ,Chute-Des-Passes/Lac Margane Seaplane Base
-1.225365,-46.019057,CTP,Carutapera Airport
61.662201,-73.321404,YAU,Donaldson Airport
50.259553,-60.674357,ZGS,La Romaine Airport
54.553901672363,-71.173301696777,YFG,Fontanges Airport
50.8307991027832,-58.97560119628906,ZLT,La Tabatière Airport
11.8553,119.9378,CUJ,Culion Airport
-9.67,150.019722222,CVL,Cape Vogel Airport
61.582901,-144.427002,CXC,Chitina Airport
73.006101,-85.04616,YAB,Arctic Bay Airport
51.7272,-91.824402,YAC,Cat Lake Airport
53.5717010498,-76.19640350339999,YAR,La Grande-3 Airport
48.655749,-93.44349,YAG,Fort Frances Municipal Airport
53.754699707,-73.6753005981,YAH,La Grande-4 Airport
50.582199,-126.916,YAL,Alert Bay Airport
46.483216,-84.508467,YAM,Sault Ste Marie Airport
53.52470016479492,-88.6427993774414,XKS,Kasabonika Airport
60.027199,-69.999199,YKG,Kangirsuk Airport
52.927502,-82.4319,YAT,Attawapiskat Airport
51.391909,-56.08321,YAY,St. Anthony Airport
49.079833,-125.775583,YAZ,Tofino / Long Beach Airport
51.208222,-115.540624,YBA,Banff Airport
68.535711,-89.805508,YBB,Kugaaruk Airport
49.1325,-68.204399,YBC,Baie-Comeau Airport
52.387501,-126.596001,QBC,Bella Coola Airport
59.561401,-108.481003,YBE,Uranium City Airport
54.304199,-110.744003,YBY,Bonnyville Airport
48.330123,-70.992012,YBG,Saguenay-Bagotville Airport
64.29889678960001,-96.077796936,YBK,Baker Lake Airport
49.950802,-125.271004,YBL,Campbell River Airport
58.706308,-98.511057,XTL,Tadoule Lake Airport
49.91,-99.951897,YBR,Brandon Municipal Airport
57.8894,-101.679001,YBT,Brochet Airport
52.358898,-97.018303,YBV,Berens River Airport
51.4436,-57.185299,YBX,Lourdes-de-Blanc-Sablon Airport
53.682501,-57.042303,YRF,Cartwright Airport
69.1081008911,-105.138000488,YCB,Cambridge Bay Airport
45.092637,-74.567724,YCC,Cornwall Regional Airport
49.05497,-123.869863,YCD,Nanaimo Airport
43.285599,-81.508301,YCE,Centralia / James T. Field Memorial Aerodrome
49.296398,-117.632004,YCG,Castlegar/West Kootenay Regional Airport
47.007801,-65.449203,YCH,Miramichi Airport
42.3064002991,-82.0819015503,XCM,Chatham Kent Airport
47.990799,-66.330299,YCL,Charlo Airport
49.10559844970703,-81.01360321044922,YCN,Cochrane Airport
67.816408,-115.14307,YCO,Kugluktuk Airport
55.687198638916016,-121.6269989013672,YCQ,Chetwynd Airport
54.609758,-97.762442,YCR,Cross Lake (Charlie Sinclair Memorial) Airport
63.346901,-90.731102,YCS,Chesterfield Inlet Airport
52.0750007629,-111.444999695,YCT,Coronation Airport
49.153157,-121.939309,YCW,Chilliwack Airport
70.486099,-68.516701,YCY,Clyde River Airport
50.331052,-115.873739,YCZ,Fairmont Hot Springs Airport
64.04309844970703,-139.1280059814453,YDA,Dawson City Airport
61.371101,-139.041,YDB,Burwash Airport
49.208159,-57.396147,YDF,Deer Lake Airport
58.422199,-130.031998,YDL,Dease Lake Airport
61.9706001282,-132.42300415,XRR,Ross River Airport
51.1008,-100.052002,YDN,Dauphin Barker Airport
48.7785,-72.375,YDO,Dolbeau-Saint-Felicien Airport
56.550778,-61.682224,YDP,Nain Airport
55.741245,-120.183263,YDQ,Dawson Creek Airport
53.3097,-113.580002,YEG,Edmonton International Airport
61.0942,-94.070801,YEK,Arviat Airport
46.351398468,-82.5614013672,YEL,Elliot Lake Municipal Airport
45.842435,-81.857595,YEM,Manitoulin East Municipal Airport
49.2103004456,-102.966003418,YEN,Estevan Airport
56.018902,-87.676102,YER,Fort Severn Airport
53.5788993835,-116.464996338,YET,Edson Airport
79.9946975708,-85.814201355,YEU,Eureka Airport
68.30419921880001,-133.483001709,YEV,Inuvik Mike Zubko Airport
48.563903,-78.249702,YEY,Amos/Magny Airport
52.203451,-81.695194,YFA,Fort Albany Airport
63.756402,-68.555801,YFB,Iqaluit Airport
45.868697,-66.529891,YFC,Fredericton International Airport
48.74610137939453,-69.09719848632812,YFE,Forestville Airport
51.561901,-87.907799,YFH,Fort Hope Airport
46.409401,-74.779999,YTM,Mont-Tremblant International Airport
54.678101,-101.681999,YFO,Flin Flon Airport
61.1808013916,-113.690002441,YFR,Fort Resolution Airport
61.76020050048828,-121.23699951171876,YFS,Fort Simpson Airport
55.077335,-59.187942,YMN,Makkovik Airport
49.694341,-124.518099,YGB,Texada Gillies Bay Airport
66.240658,-128.647757,YGH,Fort Good Hope Airport
44.2253,-76.596901,YGK,Kingston Norman Rogers Airport
53.625301361083984,-77.7042007446289,YGL,La Grande Rivière Airport
50.62810134887695,-97.04329681396484,YGM,Gimli Industrial Park Airport
54.55768,-94.490061,YGO,Gods Lake Narrows Airport
48.774915,-64.481893,YGP,Michel-Pouliot Gaspé Airport
49.77830123901367,-86.93939971923828,YGQ,Geraldton Greenstone Regional Airport
47.425242,-61.778612,YGR,Îles-de-la-Madeleine Airport
69.3647,-81.816101,YGT,Igloolik Airport
50.281898,-63.611401,YGV,Havre-Saint-Pierre Airport
55.28189849853516,-77.76529693603516,YGW,Kuujjuarapik Airport
56.35712,-94.711504,YGX,Gillam Airport
76.425823,-82.908583,YGZ,Grise Fiord Airport
61.046398,-69.617798,YQC,Quaqtaq Airport
52.8166999817,-102.310997009,YHB,Hudson Bay Airport
49.291265,-123.11717,CXH,Vancouver Harbour Water Aerodrome
49.831699,-92.744202,YHD,Dryden Regional Airport
49.368865,-121.49495,YHE,Hope Airport / FVRD Regional Airpark
49.71419906616211,-83.68609619140625,YHF,Hearst René Fontaine Municipal Airport
51.691101,-76.135597,YNS,Nemiscau Airport
70.762802,-117.806,YHI,Ulukhaktok Holman Airport
68.635597,-95.849701,YHK,Gjoa Haven Airport
43.17348,-79.931185,YHM,John C. Munro Hamilton International Airport
49.19309997558594,-84.75890350341797,YHN,Hornepayne Municipal Airport
55.448757,-60.228124,YHO,Hopedale Airport
52.1133,-94.2556,YHP,Poplar Hill Airport
50.468322,-59.637823,YHR,Chevery Airport
60.7892,-137.546005,YHT,Haines Junction Airport
45.517502,-73.416901,YHU,Montréal / Saint-Hubert Metropolitan Airport
60.8396987915,-115.782997131,YHY,Hay River / Merlyn Carter Airport
44.8807983398,-63.5085983276,YHZ,Halifax / Stanfield International Airport
48.773899,-91.638603,YIB,Atikokan Municipal Airport
44.5458450365,-65.7854247093,YDG,Digby / Annapolis Regional Airport
51.2117,-58.658298,YIF,St Augustin Airport
62.417301,-77.925301,YIK,Ivujivik Airport
72.689494,-77.968941,YIO,Pond Inlet Airport
53.857200622558594,-94.65360260009766,YIV,Island Lake Airport
52.996418,-118.060233,YJA,Jasper Airport
60.2358016968,-123.46900177,YJF,Fort Liard Airport
45.29439926147461,-73.28109741210938,YJN,St Jean Airport
48.54339,-58.552892,YJT,Stephenville Dymond International Airport
50.703038,-120.448641,YKA,Kamloops John Moose Fulton Field Regional Airport
58.2360992432,-103.678001404,YKC,Collins Bay Airport
68.223297,-135.00599,LAK,Aklavik/Freddie Carmichael Airport
43.4608,-80.378601,YKF,Region of Waterloo International Airport
61.5886,-71.929398,YWB,Kangiqsujuaq (Wakeham Bay) Airport
57.25609970092773,-105.61799621582033,YKJ,Key Lake Airport
54.805301666259766,-66.8052978515625,YKL,Schefferville Airport
44.201401,-81.606697,YKD,Kincardine Municipal Airport
60.8186,-78.148598,AKV,Akulivik Airport
51.6585998535,-85.9017028809,YOG,Ogoki Post Airport
51.473301,-78.758301,YKQ,Waskaganish Airport
48.21030044555664,-79.98139953613281,YKX,Kirkland Lake Airport
51.5175018311,-109.180999756,YKY,Kindersley Airport
59.2967,-69.599701,YPJ,Aupaluk Airport
54.7703018188,-112.031997681,YLB,Lac La Biche Airport
62.848253,-69.877853,YLC,Kimmirut Airport
47.81999969482422,-83.3467025756836,YLD,Chapleau Airport
52.195599,-87.934196,YLH,Lansdowne House Airport
54.125301361083984,-108.52300262451172,YLJ,Meadow Lake Airport
62.417823,-110.682793,YSG,Lutselk'e Airport
53.3092,-110.072998,YLL,Lloydminster Airport
47.4096984863,-72.7889022827,YLQ,La Tuque Airport
56.513301849365234,-99.98529815673828,YLR,Leaf Rapids Airport
44.485056,-79.554663,YLK,Barrie-Lake Simcoe Regional Airport
82.517263,-62.283037,YLT,Alert Airport
58.711399,-65.992798,XGR,Kangiqsualujjuaq (Georges River) Airport
49.9561,-119.377998,YLW,Kelowna International Airport
57.5149,-134.945999,CYM,Chatham Seaplane Base
63.61640167236328,-135.8679962158203,YMA,Mayo Airport
48.85689926147461,-67.45330047607422,YME,Matane Airport
49.08390045166016,-85.86060333251953,YMG,Manitouwadge Airport
52.302837,-55.847433,YMH,Mary's Harbour Airport
50.330299377441406,-105.55899810791016,YMJ,Moose Jaw Air Vice Marshal C. M. McEwen Airport
47.59749984741211,-70.2238998413086,YML,Charlevoix Airport
56.653301,-111.222,YMM,Fort McMurray International Airport
51.29109954833984,-80.60780334472656,YMO,Moosonee Airport
49.77190017700195,-74.5280990600586,YMT,Chapais Airport
56.536098,-76.518303,YUD,Umiujaq Airport
46.2728,-75.990601,YMW,Maniwaki Airport
45.679501,-74.038696,YMX,Montreal Mirabel International Airport
50.190114,-61.78898,YNA,Natashquan Airport
53.010601,-78.8311,YNC,Wemindji Airport
45.521702,-75.563599,YND,Ottawa / Gatineau Airport
53.958302,-97.8442,YNE,Norway House Airport
56.035142,-121.978326,YNH,Hudson's Hope Airport
49.1008,-122.630997,YLY,Langley Airport
58.27669906616211,-104.08200073242188,YNL,Points North Landing Airport
49.76169967651367,-77.80280303955078,YNM,Matagami Airport
57.381699,-111.700996,HZP,Fort Mackay / Horizon Airport
64.6988983154,-110.614997864,YOA,Ekati Airport
67.570602,-139.839005,YOC,Old Crow Airport
54.40499877929688,-110.27899932861328,YOD,CFB Cold Lake
54.9333,-95.2789,YOH,Oxford House Airport
58.62139892578125,-117.16500091552734,YOJ,High Level Airport
43.922798,-78.894997,YOO,Oshawa Executive Airport
58.491402,-119.407997,YOP,Rainbow Lake Airport
44.5903015137,-80.8375015259,YOS,Owen Sound / Billy Bishop Regional Airport
45.322498,-75.669197,YOW,Ottawa Macdonald-Cartier International Airport
53.2141990662,-105.672996521,YPA,Prince Albert Glass Field
69.360838,-124.07547,YPC,Paulatuk (Nora Aliqatchialuk Ruben) Airport
45.6567001343,-61.3680992126,YPS,Port Hawkesbury Airport
56.226898,-117.446999,YPE,Peace River Airport
49.903099,-98.273817,YPG,Portage-la-Prairie / Southport Airport
58.471901,-78.076897,YPH,Inukjuak Airport
51.4463996887207,-90.21420288085938,YPL,Pickle Lake Airport
51.819698,-93.973297,YPM,Pikangikum Airport
49.836399,-64.288597,YPN,Port-Menier Airport
54.987932,-85.442648,YPO,Peawanuck Airport
44.23,-78.363297,YPQ,Peterborough Municipal Airport
54.2860984802,-130.445007324,YPR,Prince Rupert Airport
49.83420181274414,-124.5,YPW,Powell River Airport
60.050598,-77.286903,YPX,Puvirnituq Airport
58.7672004699707,-111.11699676513672,YPY,Fort Chipewyan Airport
54.3764,-125.950996,YPZ,Burns Lake Airport
44.975376,-79.306546,YQA,Muskoka Airport
46.7911,-71.393303,YQB,Quebec Jean Lesage International Airport
53.97140121459961,-101.09100341796876,YQD,The Pas Airport
52.182201,-113.893997,YQF,Red Deer Regional Airport
42.2756,-82.955597,YQG,Windsor International Airport
60.116839,-128.821993,YQH,Watson Lake Airport
43.82690048217773,-66.08809661865234,YQI,Yarmouth Airport
49.78829956054688,-94.36309814453124,YQK,Kenora Airport
49.6302986145,-112.800003052,YQL,Lethbridge County Airport
46.113189,-64.67719,YQM,Greater Moncton Roméo LeBlanc International Airport
50.18280029296875,-86.69640350341797,YQN,Nakina Airport
49.7108,-124.887001,YQQ,Comox Valley International Airport / CFB Comox
50.431938,-104.660906,YQR,Regina International Airport
42.77000045776367,-81.11080169677734,YQS,St Thomas Municipal Airport
48.371899,-89.323898,YQT,Thunder Bay International Airport
55.1796989441,-118.885002136,YQU,Grande Prairie Airport
51.26470184326172,-102.46199798583984,YQV,Yorkton Municipal Airport
52.769409,-108.243742,YQW,North Battleford Airport
48.936258,-54.567719,YQX,Gander International Airport
46.1614,-60.047798,YQY,Sydney / J.A. Douglas McCurdy Airport
53.026100158691406,-122.51000213623048,YQZ,Quesnel Airport
64.116096,-117.309998,YRA,Rae Lakes Airport
74.7169036865,-94.9693984985,YRB,Resolute Bay Airport
47.76440048217773,-69.58470153808594,YRI,Rivière-du-Loup Airport
48.519665,-72.265735,YRJ,Roberval Airport
51.06689834594727,-93.79309844970705,YRL,Red Lake Airport
52.4296989441,-114.903999329,YRM,Rocky Mountain House Airport
45.460496,-75.644001,YRO,Ottawa / Rockcliffe Airport
46.35279846191406,-72.67939758300781,YRQ,Trois-Rivières Airport
54.167198,-93.557198,YRS,Red Sucker Lake Airport
62.8114013672,-92.1157989502,YRT,Rankin Inlet Airport
50.962245,-118.184258,YRV,Revelstoke Airport
46.625,-80.79889678955078,YSB,Sudbury Airport
45.438599,-71.691399,YSC,Sherbrooke Airport
50.276359,-111.180189,YSD,Canadian Forces Base Suffield Heliport
49.7817001343,-123.162002563,YSE,Squamish Airport
59.250301361083984,-105.84100341796876,YSF,Stony Rapids Airport
44.945801,-75.940598,YSH,Smiths Falls-Montague (Russ Beach) Airport
45.31610107421875,-65.89029693603516,YSJ,Saint John Airport
56.536891,-79.250221,YSK,Sanikiluaq Airport
47.157097,-67.836242,YSL,Saint-Léonard Airport
60.020302,-111.961998,YSM,Fort Smith Airport
43.191598,-79.171686,YCM,Niagara District Airport
48.75529861450195,-86.34439849853516,YSP,Marathon Airport
53.845261,-94.851966,YST,St. Theresa Point Airport
46.440601,-63.833599,YSU,Summerside Airport
71.993896,-125.242996,YSY,Sachs Harbour (David Nasogaluak Jr. Saaryuaq) Airport
45.86439895629883,-77.25170135498047,YTA,Pembroke Airport
64.230003,-76.526703,YTE,Cape Dorset Airport
48.5089,-71.641899,YTF,Alma Airport
55.80110168457031,-97.86419677734376,YTH,Thompson Airport
53.817799,-89.896896,YTL,Big Trout Lake Airport
58.667801,-69.955803,YTQ,Tasiujaq Airport
44.118900299072266,-77.5280990600586,YTR,CFB Trenton
48.5696983337,-81.376701355,YTS,Timmins/Victor M. Power
43.627852,-79.39553,YTZ,Billy Bishop Toronto City Airport
69.433296,-133.026001,YUB,Tuktoyaktuk / James Gruben Airport
45.467837,-73.742294,YUL,Montreal / Pierre Elliott Trudeau International Airport
66.521024,-86.225166,YUT,Naujaat Airport
68.7761,-81.2425,YUX,Hall Beach Airport
48.20610046386719,-78.83560180664062,YUY,Rouyn Noranda Airport
48.071098,-65.460297,YVB,Bonaventure Airport
55.1514015198,-105.262001038,YVC,La Ronge Airport
53.357714,-110.827388,YVG,Vermilion Airport
50.246163,-119.330963,YVE,Vernon Regional Airport
67.02015,-126.128364,YCK,Tommy Kochon Airport
67.54656,-64.03141,YVM,Qikiqtarjuaq Airport
48.0532989502,-77.7827987671,YVO,Val-d'Or Airport
58.096099853515625,-68.4269027709961,YVP,Kuujjuaq Airport
65.28160095214844,-126.7979965209961,YVQ,Norman Wells Airport
49.193901,-123.183998,YVR,Vancouver International Airport
55.8418998718,-108.417999268,YVT,Buffalo Narrows Airport
44.7458,-81.107201,YVV,Wiarton Airport
52.655613,-94.061208,YVZ,Deer Lake Airport
45.952202,-77.319199,YWA,Petawawa Heliport
64.190804,-114.077002,YFJ,Wekweètì Airport
49.9099998474,-97.2398986816,YWG,Winnipeg / James Armstrong Richardson International Airport
48.423782,-123.37198,YWH,Victoria Harbour Seaplane Base
65.211098,-123.435997,YWJ,Déline Airport
52.92190170288086,-66.8644027709961,YWK,Wabush Airport
52.1831016541,-122.054000854,YWL,Williams Lake Airport
52.959393,-87.374868,YWP,Webequie Airport
63.20940017700195,-123.43699645996094,YWY,Wrigley Airport
49.610801696777,-115.78199768066,YXC,Cranbrook/Canadian Rockies International Airport
52.170723,-106.700793,YXE,Saskatoon John G. Diefenbaker International Airport
50.018902,-110.721001,YXH,Medicine Hat Regional Airport
56.238098,-120.739998,YXJ,Fort St John / North Peace Regional Airport
48.477644,-68.496323,YXK,Rimouski Airport
50.11389923095703,-91.9052963256836,YXL,Sioux Lookout Airport
62.240002,-92.598099,YXN,Whale Cove Airport
66.144878,-65.713606,YXP,Pangnirtung Airport
62.410301208496094,-140.86700439453125,YXQ,Beaver Creek Airport
47.6974006546,-79.8473453522,YXR,Earlton (Timiskaming Regional) Airport
53.884311,-122.666554,YXS,Prince George (Intl) Airport
54.468498,-128.576009,YXT,Northwest Regional Airport Terrace-Kitimat
43.032845,-81.149003,YXU,London International Airport
49.025299,-122.361,YXX,Abbotsford International Airport
60.708533,-135.065705,YXY,Whitehorse / Erik Nielsen International Airport
47.96670150756836,-84.78669738769531,YXZ,Wawa Airport
46.363602,-79.422798,YYB,North Bay Jack Garland Airport
51.118822,-114.009933,YYC,Calgary International Airport
54.82469940185547,-127.18299865722656,YYD,Smithers Airport
58.8363990784,-122.597000122,YYE,Fort Nelson Airport
49.46310043334961,-119.60199737548828,YYF,Penticton Airport
46.288911,-63.125174,YYG,Charlottetown Airport
69.5467,-93.576698,YYH,Taloyoak Airport
48.647201,-123.427792,YYJ,Victoria International Airport
56.86389923095703,-101.07599639892578,YYL,Lynn Lake Airport
49.6363983154,-114.09400177,YYM,Cowley Airport
50.2919006348,-107.691001892,YYN,Swift Current Airport
58.739200592041016,-94.06500244140624,YYQ,Churchill Airport
53.3191986084,-60.4258003235,YYR,Goose Bay Airport
47.618599,-52.7519,YYT,St. John's International Airport
49.411587,-82.469645,YYU,Kapuskasing Airport
50.29029846191406,-88.90969848632812,YYW,Armstrong Airport
48.60860061645508,-68.20809936523438,YYY,Mont Joli Airport
43.675935,-79.629421,YYZ,Toronto Pearson International Airport
45.8853,-82.567802,YZE,Gore Bay Manitoulin Airport
62.462799,-114.440002,YZF,Yellowknife International Airport
62.179401,-75.667198,YZG,Salluit Airport
55.292945,-114.777276,YZH,Slave Lake Airport
53.25429916379999,-131.813995361,YZP,Sandspit Airport
42.999401,-82.308899,YZR,Chris Hadfield Airport
64.1932983398,-83.3593978882,YZS,Coral Harbour Airport
50.68059921264648,-127.36699676513672,YZT,Port Hardy Airport
54.143902,-115.787003,YZU,Whitecourt Airport
50.22330093383789,-66.2656021118164,YZV,Sept-Îles Airport
60.17279815673828,-132.7429962158203,YZW,Teslin Airport
44.98440170288086,-64.91690063476562,YZX,CFB Greenwood
56.089401,-96.089203,ZAC,York Landing Airport
50.682802,-119.228996,YSN,Shuswap Regional Airport
49.0742,-123.012001,YDT,Boundary Bay Airport
56.051622,-95.61882,ILF,Ilford Airport
47.6297,-65.738899,ZBF,Bathurst Airport
45.290798,-72.741402,ZBM,Bromont (Roland Désourdy) Airport
56.0374984741,-96.5096969604,KES,Kelsey Airport
52.226398,-78.522499,ZEM,Eastmain River Airport
62.20750045776367,-133.37600708007812,ZFA,Faro Airport
59.3344,-107.181999,ZFD,Fond-du-Lac Airport
55.749199,-101.265999,XPK,Pukatawagan Airport
67.406993,-134.860182,ZFM,Fort Mcpherson Airport
64.909496,-125.570297,ZFN,Tulita Airport
49.015598,-118.431,ZGF,Grand Forks Airport
54.839699,-94.078598,ZGI,Gods River Airport
52.045417,-95.46617,ZGR,Little Grand Rapids Airport
55.3936,-116.474998,ZHP,High Prairie Airport
9.44686,-78.575678,CZJ,Corazón de Jesús Airport
54.51890182495117,-98.0460968017578,ZJG,Jenpeg Airport
52.120602,-101.236,ZJN,Swan River Airport
52.282501,-81.677803,ZKE,Kashechewan Airport
55.31890106201172,-97.70780181884766,YTD,Thicket Portage Airport
53.441399,-91.762802,MSA,Muskrat Dam Airport
51.7360992432,-121.333000183,ZMH,South Cariboo Region / 108 Mile Airport
55.58890151977539,-97.16419982910156,PIW,Pikwitonei Airport
54.0275,-132.125,ZMT,Masset Airport
62.071201,-142.048004,CZN,Chisana Airport
52.996526,-97.274194,XPP,Poplar River Airport
62.5634994507,-144.669006348,CZO,Chistochina Airport
53.890885,-92.195935,ZPB,Sachigo Lake Airport
49.520429,-113.997002,WPC,Pincher Creek Airport
55.5280990601,-106.582000732,ZPO,Pinehouse Lake Airport
52.9436,-91.312798,ZRJ,Round Lake (Weagamow Lake) Airport
53.06420135498047,-93.34439849853516,ZSJ,Sandy Lake Airport
56.792801,-98.907204,XSI,South Indian Lake Airport
55.935410448,-129.982434511,ZST,Stewart Airport
54.333302,-130.283005,ZSW,Prince Rupert/Seal Cove Seaplane Base
51.784568,-96.692305,YDV,Bloodvein River Airport
55.86356,-92.081137,ZTM,Shamattawa Airport
49.428204,-91.720418,ZUC,Ignace Municipal Airport
53.5619010925293,-64.10639953613281,ZUM,Churchill Falls Airport
58.614279,-101.468954,XLB,Lac Brochet Airport
58.106899,-103.171997,ZWL,Wollaston Lake Airport
42.908902,-77.325226,IUA,Canandaigua Airport
64.049861,-145.722656,DJN,Delta Junction Airport
35.90518,0.144539,MQV,Mostaganem Airport
35.3325,4.20639,BUJ,Bou Saada Airport
36.712547,5.069909,BJA,Soummam–Abane Ramdane Airport
36.693886,3.214531,ALG,Houari Boumediene Airport
24.285448,9.463652,DJG,Djanet Inedbirene Airport
26.723499,8.62265,VVZ,Illizi Takhamalt Airport
36.178488,5.329909,QSF,Ain Arnat Airport
22.811501,5.45108,TMR,Aguenar – Hadj Bey Akhamok Airport
36.794125,5.873652,GJL,Jijel Ferhat Abbas Airport
33.535900116,-0.242353007197,MZW,Mecheria Airport
36.826781,7.81334,AAE,Annaba Rabah Bitat Airport
36.276001,6.62039,CZL,Mohamed Boudiaf International Airport
35.4315986633,8.12071990967,TEE,Cheikh Larbi Tébessi Airport
35.752102,6.30859,BLJ,Batna Mostefa Ben Boulaid Airport
-4.7403,145.9515,DAF,Daup Airport
32.930401,3.31154,HRM,Hassi R'Mel Airport
13.866884,46.133473,DAH,Dathina Airport
-8.431944444440001,147.843055556,DAO,Dabo Airport
35.341099,1.46315,TID,Abdelhafid Boussouf Bou Chekif Airport
27.7003993988,-8.167099952700001,TIN,Tindouf Airport
36.216614,1.341114,CFK,Chlef Aboubakr Belkaid International Airport
35.5424,-0.532278,TAF,Oran Tafraoui Airport
35.012732,-1.457117,TLM,Zenata – Messali El Hadj Airport
35.620648,-0.622486,ORN,Oran Es-Sénia (Ahmed Ben Bella) International Airport
31.64570045471192,-2.269860029220581,CBH,Béchar Boudghene Ben Ali Lotfi Airport
35.1717987061,-0.593275010586,BFW,Sidi Bel Abbes Airport
35.207699,0.147142,MUW,Ghriss Airport
33.721667,1.0925,EBH,El Bayadh Airport
19.560518,5.749326,INF,In Guezzam Airport
21.3778,0.92698,BMW,Bordj Badji Mokhtar Airport
27.837601,-0.186414,AZR,Touat-Cheikh Sidi Mohamed Belkebir Airport
34.79318,5.738899,BSK,Biskra - Mohamed Khider Airport
30.580732,2.861595,ELG,El Golea Airport
32.384102,3.79411,GHA,Noumérat - Moufdi Zakaria Airport
31.673,6.14044,HME,Hassi Messaoud-Oued Irara Krim Belkacem Airport
27.250999,2.51202,INZ,In Salah Airport
33.067799,6.08867,TGR,Touggourt Sidi Madhi Airport
33.7644,2.92834,LOO,Laghouat - Molay Ahmed Medeghri Airport
33.511398,6.77679,ELU,Guemar Airport - مطار قمار بالوادي
29.237101,0.276033,TMX,Timimoun Airport
31.9172,5.41278,OGX,Ain Beida Airport
28.0515,9.64291,IAM,Zarzaitine - In Aménas Airport
6.35723,2.38435,COO,Cotonou Cadjehoun International Airport
9.69208333333,1.63777777778,DJA,Djougou Airport
11.14479,2.940381,KDC,Kandi Airport
10.376965,1.360507,NAE,Natitingou Airport
9.35768985748291,2.609679937362671,PKO,Parakou Airport
8.018170356750488,2.4645800590515137,SVF,Savé Airport
8.273,79.756,DBK,Dutch Bay SPB
7.8604,80.6304,DBU,Dambulu Oya Tank Seaplane Base
66.943298,-156.904999,DCK,Dahl Creek Airport
-8.17736111111,147.809444444,DDM,Dodoima Airport
30.504264,120.107388,DEQ,Deqing Moganshan Airport
-4.8557,139.482006,DEX,Nop Goliat Dekai Airport
13.067,-1.1,XKY,Kaya Airport
13.655287,-2.322067,OUG,Ouahigouya Airport
14.125,-1.624722,XDJ,Djibo Airport
11.1,-2.1,XLU,Leo Airport
11.179139,-1.148472,PUP,Po Airport
12.65,-0.567,XBO,Boulsa Airport
12.983,-0.167,XBG,Bogande Airport
12.060324,1.784631,DIP,Diapaga Airport
14.021638,-0.068207,DOR,Dori Airport
12.033,0.35,FNG,Fada N'gourma Airport
14.454174,-0.218644,XGG,Gorom-Gorom Airport
12.464046,1.492939,XKA,Kantchari Airport
14.790874,0.039492,TMQ,Tambao Airport
11.25,0.7,XPA,Pama Airport
11.597,1.483,ARL,Arly Airport
13.45,0.517,XSE,Sebba Airport
11.801149,-0.371377,TEG,Tenkodogo Airport
11.167,-0.617,XZA,Zabré Airport
12.3532,-1.51242,OUA,Ouagadougou Thomas Sankara International Airport
10.688861,-4.727726,BNR,Banfora Airport
12.459,-3.49,DGU,Dedougou Airport
10.384059,-3.163454,XGA,Gaoua Airport
12.75,-3.867000103,XNU,Nouna Airport
11.1601,-4.33097,BOY,Bobo Dioulasso Airport
13.059091,-3.077291,TUQ,Tougan Airport
10.95,-3.25,XDE,Diebougou Airport
14.2170000076,-0.883000016212,XAR,Aribinda Airport
5.605189800262451,-0.1667860001325607,ACC,Kotoka International Airport
9.553909,-0.86606,TML,Tamale International Airport
10.0827,-2.50769,WZA,Wa Airport
7.1079,79.8721,DGM,Dandugama Seaplane Base
6.71456,-1.59082,KMS,Prempeh I International Airport
7.36183,-2.32876,NYI,Sunyani Airport
4.896059989929199,-1.7747600078582764,TKD,Takoradi Airport
48.616667,-123.002778,DHB,Deer Harbor SPB
44.558748,135.490005,DHG,Dalnegorsk Airport
13.73846,44.72719,DHL,Ad-Dali Airport
5.461944,-3.234722,ABO,Aboisso Airport
5.26139,-3.92629,ABJ,Félix-Houphouët-Boigny International Airport
6.71556,-3.47028,OGO,Abengourou Airport
9.540571,-6.469831,BXI,Boundiali Airport
7.7388,-5.07367,BYK,Bouaké Airport
9.255556,-3.033333,BQO,Bouna Airport
8.01722,-2.76194,BDK,Soko Airport
6.65167,-4.64056,DIM,Dimbokro Airport
6.79281,-6.47319,DJO,Daloa Airport
6.102855,-5.986809,GGN,Gagnoa Airport
6.534711,-7.526847,GGO,Guiglo Airport
4.64341306686,-6.923961639400001,BBV,Nero-Mer Airport
9.38718,-5.55666,HGO,Korhogo Airport
7.27207,-7.58736,MJC,Man Airport
9.539457,-7.56134,KEO,Odienne Airport
9.6,-4.05,OFI,Ouango Fitini Airport
7.96,-6.644167,SEO,Séguéla Airport
4.74672,-6.66082,SPY,San Pedro Airport
4.928888,-6.133156,ZSS,Sassandra Airport
4.437809467315674,-7.362728118896484,TXU,Tabou Airport
8.2934,-7.674,TOZ,Mahana Airport
5.990192,80.733129,DIW,Mawella Lagoon Seaplane Base
6.90317,-5.36558,ASK,Yamoussoukro International Airport
45.877949,133.735822,DLR,Dalnerechensk Airport
65.758367,-168.953676,DIO,Diomede Heliport
13.0078,7.66045,DKA,Umaru Musa Yar'adua Airport
9.00679,7.26317,ABV,Nnamdi Azikiwe International Airport
4.8725,8.093,QUO,Akwa Ibom International Airport
7.246739864349365,5.3010101318359375,AKR,Akure Airport
6.204167,6.665278,ABB,Asaba International Airport
10.482833,9.744,BCU,Sir Abubakar Tafawa Balewa Bauchi State International Airport
6.316979885101318,5.599500179290772,BNI,Benin Airport
4.976019859313965,8.347200393676758,CBQ,Margaret Ekpo International Airport
6.474269866943359,7.561960220336914,ENU,Akanu Ibiam International Airport
10.298889,10.9,GMO,Gombe Lawanti International Airport
7.362460136413574,3.97832989692688,IBA,Ibadan Airport
8.44021,4.49392,ILR,General Tunde Idiagbon International Airport
5.427060127258301,7.206029891967773,QOW,Sam Mbakwe International Airport
9.639829635620115,8.869050025939941,JOS,Yakubu Gowon Airport
10.696,7.32011,KAD,Kaduna International Airport
12.045613,8.523566,KAN,Mallam Aminu Kano International Airport
11.854163,13.080702,MIU,Maiduguri International Airport
7.70388,8.61394,MDI,Makurdi Airport
6.57737,3.32116,LOS,Murtala Muhammed International Airport
9.652170181274414,6.462259769439697,MXJ,Minna Airport
5.01549,6.94959,PHC,Port Harcourt International Airport
12.915729,5.207547,SKO,Sadiq Abubakar III International Airport
5.59821,5.8187,QRW,Warri Airport
9.257550239562988,12.430399894714355,YOL,Yola Airport
11.1302,7.68581,ZAR,Zaria Airport
69.392503,139.890012,DPT,Deputatskiy Airport
13.5025,7.12675,MFQ,Maradi Airport
13.4815,2.18361,NIM,Diori Hamani International Airport
14.8757,5.26536,THZ,Tahoua Airport
16.965999603271484,8.000109672546387,AJY,Mano Dayak International Airport
18.7903995514,7.36595010757,RLT,Arlit Airport
13.779000282287598,8.983759880065918,ZND,Zinder Airport
16.445833333299998,122.206805556,DSG,Dilasag Airport
36.98,8.87694,TBJ,Tabarka-Aïn Draham International Airport
35.75809860229492,10.75469970703125,MIR,Monastir Habib Bourguiba International Airport
36.075833,10.438611,NBE,Enfidha - Hammamet International Airport
36.851002,10.2272,TUN,Tunis Carthage International Airport
34.422000885009766,8.822500228881836,GAF,Gafsa Ksar International Airport
33.733691,9.91941,GAE,Gabès Matmata International Airport
33.873719,10.7773,DJE,Djerba Zarzis International Airport
31.7043,9.25462,EBM,El Borma Airport
34.717999,10.691,SFA,Sfax Thyna International Airport
33.939701080322266,8.110560417175293,TOE,Tozeur Nefta International Airport
-22.06608,43.259573,DVD,Andavadoaka Airport
6.906585,79.909,DWO,Diyawanna Oya Seaplane Base
9.766675,1.090944,LRL,Niamtougou International Airport
6.16561,1.25451,LFW,Lomé–Tokoin International Airport
9.319305555560002,166.847777778,EAL,Elenak Airport
51.190667,4.463153,ANR,Antwerp International Airport (Deurne)
50.901402,4.48444,BRU,Brussels Airport
50.461963,4.459562,CRL,Brussels South Charleroi Airport
51.020551,3.730341,GNE,Ghent/Industry Zone Heliport
50.818878,3.209551,KJK,Flanders International Airport Kortrijk-Wevelgem
50.638574,5.443897,LGG,Liège Airport
4.5982,168.752,EBO,Ebon Airport
51.1998,2.874673,OST,Ostend-Bruges International Airport
51.269092,4.762428,OBL,Oostmalle Airfield
-2.733330011367798,-78.31670379638672,MZD,Méndez Airport
55.949653,-133.661012,EDA,Edna Bay Seaplane Base
50.981945,12.506389,AOC,Leipzig–Altenburg Airport
53.8787,14.1523,HDF,Heringsdorf Airport
51.29361,13.356111,IES,Riesa-Göhlis Airport
53.306389,12.752222,REB,Müritz Airpark
51.8564,11.4203,CSO,Cochstedt Airport
54.338253,12.710515,BBH,Stralsund-Barth Airport
53.6022,13.306,FNB,Neubrandenburg Trollenhagen Airport
54.38347,13.325542,GTI,Rügen Airport
51.723745,11.948826,KOQ,Köthen Airport
54.15778,13.774444,PEF,Peenemünde Airport
52.361738,13.502341,BER,Berlin Brandenburg Willy Brandt Airport
51.134123,13.767831,DRS,Dresden Airport
50.978281,10.960713,ERF,Erfurt-Weimar Airport
50.030241,8.561096,FRA,Frankfurt Airport
52.133816,7.688482,FMO,Münster Osnabrück Airport
53.630402,9.98823,HAM,Hamburg Helmut Schmidt Airport
50.865898,7.14274,CGN,Cologne Bonn Airport
51.289501,6.76678,DUS,Düsseldorf Airport
48.353802,11.7861,MUC,Munich Airport
49.498699,11.078056,NUE,Nuremberg Airport
51.420657,12.232705,LEJ,Leipzig/Halle Airport
49.217562,7.111667,SCN,Saarbrücken Airport
48.689899,9.22196,STR,Stuttgart Airport
52.461102,9.68508,HAJ,Hannover Airport
53.046786,8.78932,BRE,Bremen Airport
49.946353,7.261734,HHN,Frankfurt-Hahn Airport
49.473057,8.514167,MHG,Mannheim-City Airport
50.991604,10.47973,EIB,Eisenach-Kindel Airport
49.486509,8.389243,ZOE,Ludwigshafen Accident Hospital Heliport
50.707699,8.08297,SGE,Siegerland Airport
53.992009,9.576409,IZE,Itzehoe Hungriger Wolf Airfield
53.5352783203125,9.835556030273438,XFW,Hamburg-Finkenwerder Airport
54.37957,10.145266,KEL,Kiel-Holtenau Airport
53.805401,10.7192,LBC,Lübeck Blankensee Airport
54.079445,9.941389,EUM,Neumünster Airport
47.988092,10.238248,FMM,Memmingen Allgau Airport
50.823055,6.186389,AAH,Aachen-Merzbrück Airport
51.402302,6.93733,ESS,Essen-Mülheim Airport
51.964722,8.544444,BFE,Bielefeld Airport
51.230278,6.504444,MGL,Mönchengladbach Airport
51.612527,8.617459,PAD,Paderborn Lippstadt Airport
51.601362,6.141228,NRN,Weeze (Niederrhein) Airport
51.518299,7.61224,DTM,Dortmund Airport
48.425278,10.931667,AGB,Augsburg Airport
48.081402,11.2831,OBF,Oberpfaffenhofen Airport
48.900833,12.516667,RBM,Straubing Airport
47.671299,9.51149,FDH,Bodensee Airport Friedrichshafen
49.985001,11.64,BYU,Bayreuth Airport
49.794167,11.133611,URD,Burg Feuerstein Airport
49.6480560303,9.966388702390002,GHF,Giebelstadt Airport
50.288544,11.852876,HOQ,Hof-Plauen Airport
49.945278,6.565,BBJ,Bitburg Airport
49.2094,7.40056,ZQW,Zweibrücken Airport
48.7794,8.0805,FKB,Karlsruhe Baden-Baden Airport
48.369301,7.82772,LHA,Lahr Airport
52.319199,10.5561,BWE,Braunschweig-Wolfsburg Airport
51.418395,9.391638,KSF,Kassel Airport
53.391109,7.2275,EME,Emden Airport
53.782544,7.919584,AGE,Wangerooge Airport
53.50222,8.052222,WVN,JadeWeser Airport
53.681421,7.056398,JUI,Juist Airport
53.742379,7.496345,LGO,Langeoog Airport
53.59639,6.709167,BMK,Borkum Airport
53.633057,7.190278,NOD,Norden-Norddeich Airport
52.908333,8.040556,VAC,Varrelbusch Airfield
53.706944,7.23,NRD,Norderney Airport
53.72485,7.373257,BMR,Baltrum Airport
54.153332,8.901667,HEI,Heide-Büsum Airport
54.773335,9.378889,FLF,Flensburg-Schäferhaus Airport
54.18528,7.915833,HGL,Helgoland-Düne Airport
54.5099983215,9.13833332062,QHU,Husum-Schwesing Airport
54.308887,8.686944,PSH,Sankt Peter-Ording Airport
54.9132,8.34047,GWT,Westerland Sylt Airport
54.684444,8.528333,OHR,Wyk auf Föhr Airport
59.448015,24.753313,CHE,Tallinn Linnahall Heliport
58.99079895019531,22.830699920654297,KDL,Kärdla Airport
58.22990036010742,22.50950050354004,URE,Kuressaare Airport
58.41899871826172,24.47279930114746,EPU,Pärnu Airport
23.980437,35.460277,EES,Berenice International Airport / Banas Cape Air Base
59.413246,24.83264,TLL,Lennart Meri Tallinn Airport
58.307438,26.686473,TAY,Tartu Airport
68.362602233887,23.424299240112,ENF,Enontekio Airport
61.856039,24.786686,KEV,Halli Airport
60.147778,24.924444,HEN,Hernesaari Heliport
60.318363,24.963341,HEL,Helsinki Vantaa Airport
60.6544,24.8811,HYV,Hyvinkää Airfield
62.1661,30.073601,KTQ,Kitee Airport
68.6073,27.4053,IVL,Ivalo Airport
62.658815,29.619398,JOE,Joensuu Airport
62.399502,25.678301,JYV,Jyväskylä Airport
63.127102,23.051399,KAU,Kauhava Airfield
65.778701782227,24.582099914551,KEM,Kemi-Tornio Airport
64.2855,27.6924,KAJ,Kajaani Airport
62.463212,22.390817,KHJ,Kauhajoki Airfield
63.721199,23.143101,KOK,Kokkola-Pietarsaari Airport
65.987602,29.239401,KAO,Kuusamo Airport
67.700996,24.8468,KTT,Kittilä International Airport
63.007099,27.7978,KUO,Kuopio Airport
61.044601,28.144743,LPP,Lappeenranta Airport
60.1222,19.898199,MHQ,Mariehamn Airport
61.6866,27.201799,MIK,Mikkeli Airport
64.930099,25.354601,OUL,Oulu Airport
61.4617,21.799999,POR,Pori Airport
66.563327,25.829751,RVN,Rovaniemi Airport
61.9431,28.945101,SVL,Savonlinna Airport
62.692101,22.8323,SJY,Seinäjoki Airport
67.3949966431,26.6191005707,SOT,Sodankyla Airport
61.414101,23.604401,TMP,Tampere-Pirkkala Airport
60.514099,22.2628,TKU,Turku Airport
60.8964,26.9384,UTI,Utti Air Base
63.05023,21.762543,VAA,Vaasa Airport
62.171101,27.868601,VRK,Varkaus Airport
64.054722,24.725278,YLI,Ylivieska Airfield
30.0503,31.841369,TFR,Katameya Air Base
28.899694,33.202057,AUE,Abu Rudeis Airport
54.6575012207,-6.21582984924,BFS,Belfast International Airport
54.398274,-7.651179,ENK,Enniskillen/St Angelo Airport
54.618099,-5.8725,BHD,George Best Belfast City Airport
55.042801,-7.16111,LDY,City of Derry Airport
52.453899,-1.74803,BHX,Birmingham Airport
52.369701,-1.47972,CVT,Coventry Airport
51.894199,-2.16722,GLO,Gloucestershire Airport
52.305302,-0.793056,ORM,Sywell Aerodrome
52.919998,-1.07917,NQT,Nottingham City Airport
51.668528,-2.056599,GBA,Cotswold Airport
53.349375,-2.279521,MAN,Manchester Airport
51.28657,-1.782239,UPV,Upavon Aerodrome
51.009399,-2.63882,YEO,RNAS Yeovilton
55.437199,-5.68639,CAL,Campbeltown Airport
59.19060134887695,-2.7722198963165283,EOI,Eday Airport
59.534721,-1.628509,FIE,Fair Isle Airport
60.376835,-0.927229,WHS,Whalsay Airstrip
57.253131,-5.827755,SKL,Broadford Airstrip
56.601898,-6.61778,COL,Coll Airport
59.3675003052,-2.43443989754,NRL,North Ronaldsay Airport
56.463501,-5.39967,OBN,Oban Airport
59.351699829100006,-2.9002799987800003,PPW,Papa Westray Airport
59.1553,-2.64139,SOY,Stronsay Airport
59.250301,-2.57667,NDY,Sanday Airport
60.1922,-1.24361,LWK,Lerwick / Tingwall Airport
59.3502998352,-2.95000004768,WRY,Westray Airport
56.057499,-6.24306,CSA,Colonsay Airstrip
51.833099365234375,-4.9611101150512695,HAW,Haverfordwest Airport
51.396702,-3.34333,CWL,Cardiff International Airport
51.601366,-4.071006,SWS,Swansea Airport
51.382326,-2.716453,BRS,Bristol Airport
53.334863,-2.849637,LPL,Liverpool John Lennon Airport
51.874699,-0.368333,LTN,London Luton Airport
50.102798,-5.67056,LEQ,Land's End Airport
49.913375,-6.291894,ISC,St. Mary's Airport
50.780483,-1.839576,BOH,Bournemouth Airport
50.950298,-1.3568,SOU,Southampton Airport
50.678101,-1.10944,BBP,Bembridge Airport
50.440601,-4.99541,NQY,Cornwall Airport Newquay
50.859832,-0.760073,QUG,Goodwood Aerodrome
49.706104,-2.21472,ACI,Alderney Airport
49.435001,-2.60197,GCI,Guernsey Airport
49.207901,-2.19551,JER,Jersey Airport
50.835602,-0.297222,ESH,Brighton City Airport
51.33079910279999,0.0324999988079,BQH,London Biggin Hill Airport
51.148771,-0.192089,LGW,London Gatwick Airport
51.505299,0.055278,LCY,London City Airport
51.275799,-0.776333,FAB,Farnborough Airport
51.323898,-0.8475,BBS,Blackbushe Airport
51.4706,-0.461941,LHR,London Heathrow Airport
51.570562,0.693627,SEN,London Southend Airport
50.956246,0.939074,LYX,Lydd London Ashford Airport
54.9375,-2.80917,CAX,Carlisle Lake District Airport
53.771702,-3.02861,BLK,Blackpool Airport
53.576152,-0.34954,HUY,Humberside Airport
54.1286111,-3.2675,BWF,Barrow Walney Island Airport
53.865898,-1.66057,LBA,Leeds Bradford Airport
53.745098,-2.88306,WRT,Warton Aerodrome
53.178101,-2.97778,CEG,Hawarden Airport
54.083081,-4.623871,IOM,Isle of Man Airport
55.037958,-1.689577,NCL,Newcastle International Airport
54.509201,-1.42941,MME,Teesside International Airport
52.8311,-1.32806,EMA,East Midlands Airport
53.2481,-4.53534,VLY,Anglesey Airport
58.957903,-2.905077,KOI,Kirkwall Airport
59.878899,-1.29556,LSI,Sumburgh Airport
58.4589,-3.09306,WIC,Wick John O'Groats Airport
57.2019,-2.19778,ABZ,Aberdeen International Airport
57.5425,-4.0475,INV,Inverness Airport
55.871899,-4.43306,GLA,Glasgow Airport
55.950145,-3.372288,EDI,Edinburgh Airport
55.682708,-6.257525,ILY,Islay Airport
55.502003,-4.587019,PIK,Glasgow Prestwick Airport
57.481098,-7.36278,BEB,Benbecula Airport
56.452499,-3.02583,DND,Dundee Airport
58.215599,-6.33111,SYY,Stornoway Airport
57.0228,-7.44306,BRR,Barra Airport
56.439201,-3.37222,PSL,Perth/Scone Airport
56.499199,-6.86917,TRE,Tiree Airport
56.37398,-2.868862,ADX,Leuchars Station Airfield
57.7052,-3.33917,LMO,RAF Lossiemouth
52.205002,0.175,CBG,Cambridge City Airport
52.6758,1.28278,NWI,Norwich Airport
51.884998,0.235,STN,London Stansted Airport
51.61177,-0.808316,HYC,Wycombe Air Park
50.734261,-3.413984,EXT,Exeter International Airport
51.836899,-1.32,OXF,London Oxford Airport
51.351898,0.503333,RCS,Rochester Airport
51.614366,-1.095991,BEX,RAF Benson
52.40954,0.561161,LKZ,RAF Lakenheath
52.3619,0.486406,MHZ,RAF Mildenhall
51.683568,-1.789172,FFD,RAF Fairford
51.75,-1.58362,BZZ,RAF Brize Norton
51.2341,-0.942825,ODH,RAF Odiham
51.553001,-0.418167,NHT,RAF Northolt
53.092999,-0.166014,QCY,RAF Coningsby
52.342602,0.772939,BEQ,RAF Honington
53.166199,-0.523811,WTN,RAF Waddington
52.648395,0.550692,KNF,RAF Marham
-51.822642,-58.445777,MPN,Mount Pleasant Airport / RAF Mount Pleasant
52.308601,4.76389,AMS,Amsterdam Airport Schiphol
50.911701,5.77014,MST,Maastricht Aachen Airport
51.4500999451,5.37452983856,EIN,Eindhoven Airport
53.119701,6.57944,GRQ,Groningen Airport Eelde
51.567402,4.93183,GLZ,Gilze Rijen Air Base
52.923401,4.78062,DHR,De Kooy Airfield / Den Helder Naval Air Station
52.453188,5.514622,LEY,Lelystad Airport
53.22859954833984,5.760560035705566,LWR,Leeuwarden Air Base
51.956902,4.43722,RTM,Rotterdam The Hague Airport
52.275833,6.889167,ENS,Twente Airport
51.657222,5.707778,UDE,Volkel Air Base
51.4491,4.34203,WOE,Woensdrecht Air Base
51.6772,-9.487123,BYT,Bantry Aerodrome
54.2228012085,-10.0307998657,BLY,Belmullet Aerodrome
53.23030090332031,-9.467780113220217,NNR,Connemara Regional Airport
51.841301,-8.49111,ORK,Cork International Airport
55.0442008972168,-8.340999603271484,CFN,Donegal Airport
53.428713,-6.262121,DUB,Dublin Airport
53.1067008972168,-9.653610229492188,IOR,Inishmore Aerodrome
53.064701,-9.5109,INQ,Inisheer Aerodrome
52.65079879760742,-7.296110153198242,KKY,Kilkenny Airport
53.910439,-8.817002,NOC,Ireland West Airport Knock
52.180901,-9.52378,KIR,Kerry Airport
53.092999,-9.56806,IIA,Inishmaan Aerodrome
52.702,-8.92482,SNN,Shannon Airport
54.280200958252,-8.5992097854614,SXL,Sligo Airport
52.187199,-7.08696,WAT,Waterford Airport
42.0155,101.0005,EJN,Ejin Banner Taolai Airport
6.0404,171.9846,EJT,Enejit Airport
56.303331,10.618286,AAR,Aarhus Airport
55.740335,9.157019,BLL,Billund Airport
55.617900848389,12.656000137329,CPH,Copenhagen Kastrup Airport
55.525902,8.5534,EBJ,Esbjerg Airport
56.297139,9.104311,KRP,Midtjyllands Airport / Air Base Karup
57.277199,11.0001,BYR,Læsø Airport
54.699447,11.438163,MRW,Lolland Falster Maribo Airport
55.475307,10.327206,ODE,Odense Hans Christian Andersen Airport
55.585602,12.1314,RKE,Copenhagen Roskilde Airport
55.063301,14.7596,RNN,Bornholm Airport
54.96440124511719,9.791729927062988,SGD,Sønderborg Airport
57.503502,10.2294,CNL,Sindal Airport
55.221048,9.26702,SKS,Skrydstrup Air Base
56.550201,9.17298,SQW,Skive Airport
57.068802,8.70522,TED,Thisted Airport
62.063256,-7.275782,FAE,Vágar Airport
55.990101,8.35391,STA,Stauning Vestjylland  Airport
57.094763,9.84993,AAL,Aalborg Airport
49.6233333,6.2044444,LUX,Luxembourg-Findel International Airport
17.752077,-89.924916,EMR,El Mirador Heliport
62.5625,6.1197,AES,"Ålesund Airport, Vigra"
69.292503,16.144199,ANX,"Andøya Airport, Andenes"
69.976097,23.3717,ALF,Alta Airport
61.391102,5.75694,FDE,"Førde Airport, Bringeland"
65.461098,12.2175,BNN,"Brønnøysund Airport, Brønnøy"
67.269203,14.3653,BOO,Bodø Airport
60.2934,5.21814,BGO,"Bergen Airport, Flesland"
70.60025,29.692612,BJF,Båtsfjord Airport
70.871517,29.034097,BVG,Berlevåg Airport
58.204201,8.08537,KRS,"Kristiansand Airport, Kjevik"
69.055801,18.5404,BDU,Bardufoss Airport
68.491302490234,16.678100585938,EVE,"Harstad/Narvik Airport, Evenes"
61.583599090576,5.0247201919556,FRO,Florø Airport
60.193901,11.1004,OSL,Oslo-Gardermoen International Airport
60.8181,11.068,HMR,"Hamar Lufthavn, Stavsberg"
59.345299,5.20836,HAU,"Haugesund Airport, Karmøy"
70.679703,23.6686,HFT,Hammerfest Airport
70.486702,22.1397,HAA,Hasvik Airport
71.009697,25.983601,HVG,"Honningsvåg Airport, Valan"
63.111801,7.82452,KSU,"Kristiansund Airport, Kvernberget"
60.791066,9.048672,GLL,Gol Airport
69.7258,29.8913,KKN,"Kirkenes Airport, Høybuktmoen"
68.152496337891,13.609399795532,LKN,Leknes Airport
71.029701,27.8267,MEH,Mehamn Airport
62.744701,7.2625,MOL,"Molde Airport, Årø"
65.783997,13.2149,MJF,"Mosjøen Airport, Kjærstad"
70.068802,24.973499,LKL,"Lakselv Airport, Banak"
64.472198,11.5786,OSY,Namsos Airport
59.565071,9.213152,NTB,Notodden Airport
63.69889831542969,9.604000091552734,OLA,Ørland Airport
62.180000305176,6.0741000175476,HOV,"Ørsta-Volda Airport, Hovden"
66.363899230957,14.301400184631,MQN,"Mo i Rana Airport, Røssvoll"
64.838302612305,11.14610004425,RVK,"Rørvik Airport, Ryum"
62.578399658203,11.342300415039,RRS,Røros Airport
67.526482,12.101575,RET,Røst Airport
78.246101,15.4656,LYR,Svalbard Airport
61.830002,6.10583,SDN,"Sandane Airport, Anda"
61.156101,7.13778,SOG,"Sogndal Airport, Haukåsen"
68.243301,14.6692,SVJ,"Svolvær Airport, Helle"
68.578827,15.033417,SKN,"Stokmarknes Airport, Skagen"
59.791901,5.34085,SRP,"Stord Airport, Sørstokken"
69.786797,20.9594,SOJ,Sørkjosen Airport
70.3554,31.044901,VAW,"Vardø Airport, Svartnes"
65.956802,12.4689,SSJ,"Sandnessjøen Airport, Stokka"
69.683296,18.9189,TOS,"Tromsø Airport, Langnes"
59.186699,10.2586,TRF,"Sandefjord Airport, Torp"
63.457802,10.924,TRD,"Trondheim Airport, Værnes"
70.0653,29.8447,VDS,Vadsø Airport
67.654555,12.727257,VRY,Værøy Heliport
58.876701,5.63778,SVG,"Stavanger Airport, Sola"
53.096802,17.977699,BZG,Bydgoszcz Ignacy Jan Paderewski Airport
54.377602,18.4662,GDN,Gdańsk Lech Wałęsa Airport
50.077702,19.7848,KRK,Kraków John Paul II International Airport
50.476015,19.080705,KTW,Katowice Wojciech Korfanty International Airport
51.240157,22.713461,LUZ,Lublin Airport
51.721901,19.3981,LCJ,Łódź Władysław Reymont Airport
52.451099,20.6518,WMI,Modlin Airport
52.421598,16.823359,POZ,Poznań-Ławica Airport
51.38937,21.214742,RDO,Warsaw Radom Airport
50.109791,22.024155,RZE,Rzeszów-Jasionka Airport
53.584702,14.9022,SZZ,Solidarity Szczecin–Goleniów Airport
53.481899,20.9377,SZY,Olsztyn-Mazury Airport
52.165699,20.9671,WAW,Warsaw Chopin Airport
51.103719,16.882096,WRO,Copernicus Wrocław Airport
52.1385,15.7986,IEG,Zielona Góra-Babimost Airport
48.983056,104.150556,ERT,Erdenet Airport
56.266701,15.265,RNB,Ronneby Airport
57.6628,12.2798,GOT,Göteborg Landvetter Airport
57.757598876953125,14.068699836730955,JKG,Jönköping Airport
58.4655,13.1744,LDK,Lidköping-Hovby Airport
57.7747,11.8704,GSE,Säve Airport
58.456402,13.9727,KVB,Skövde Airport
58.31809997558594,12.345000267028809,THN,Trollhättan-Vänersborg Airport
59.345901,14.4959,KSK,Karlskoga Airport
60.957901,14.5114,MXX,Mora Airport
58.789656,16.911479,NYO,Stockholm Skavsta Airport
61.158393,12.842503,SCR,Scandinavian Mountains Airport
55.9217,14.0855,KID,Kristianstad Airport
57.350498,16.497999,OSK,Oskarshamn Airport
56.685501,16.2876,KLR,Kalmar Airport
55.535564,13.376327,MMX,Malmö Sturup Airport
56.69110107421875,12.820199966430664,HAD,Halmstad Airport
56.92910003662109,14.727999687194824,VXO,Växjö Kronoberg Airport
62.047798,14.4229,EVG,Sveg Airport
67.13240051269531,20.814599990844727,GEV,Gällivare Airport
63.048599,17.7689,KRF,Kramfors-Sollefteå Höga Kusten Airport
64.548302,18.7162,LYC,Lycksele Airport
62.528099060058594,17.443899154663086,SDL,Sundsvall-Härnösand Airport
63.40829849243164,18.989999771118164,OER,Örnsköldsvik Airport
67.821999,20.3368,KRN,Kiruna Airport
64.62480163574219,21.07690048217773,SFT,Skellefteå Airport
63.791801,20.282801,UME,Umeå Airport
64.579102,16.833599,VHM,Vilhelmina South Lapland Airport
65.59030151367188,19.28190040588379,AJR,Arvidsjaur Airport
61.261501,17.0991,SOO,Söderhamn Airport
63.194135,14.500322,OSD,Åre Östersund Airport
59.22370147705078,15.038000106811523,ORB,Örebro Airport
60.0201,13.5789,HFS,Hagfors Airport
59.444698,13.3374,KSD,Karlstad Airport
59.589401,16.6336,VST,Stockholm Västerås Airport
65.5438,22.122,LLA,Luleå Airport
59.64849,17.928829,ARN,Stockholm-Arlanda Airport
59.354401,17.9417,BMA,Stockholm-Bromma Airport
60.422001,15.5152,BLE,Dala Airport
57.525799,15.8233,HLF,Hultsfred Airport
60.5933,16.951401,GVX,Gävle Sandviken Airport
58.404909,15.684499,LPI,Linköping City Airport
58.58629989624024,16.250600814819336,NRK,Norrköping Airport
60.1576,12.9913,TYF,Torsby Airport
59.351101,16.708401,EKT,Eskilstuna Airport
57.662799835205,18.346200942993,VBY,Visby Airport
57.779999,16.5236,VVK,Västervik Airport
56.29610061645508,12.847100257873535,AGH,Ängelholm-Helsingborg Airport
64.960899,17.6966,SQO,Storuman Airport
61.869701,12.6894,IDB,Idre Airport
67.244569,23.074894,PJA,Pajala Airport
65.806099,15.0828,HMV,Hemavan Airport
6.984439849849999,46.4213981628,GLC,Geladi Airport
14.075699,38.273592,SHC,Shire Inda Selassie Airport
49.976507,6.698413,SPM,Spangdahlem Air Base
49.436901,7.60028,RMS,Ramstein Air Base
51.1146,9.286,FRZ,Fritzlar Army Airfield
49.4739,10.3881,ILH,Illesheim Army Heliport
49.744293,10.207313,KZG,Kitzingen Airfield
53.767689,8.659201,FCN,Sea-Airport Cuxhaven/Nordholz / Nordholz Naval Airbase
50.9608,6.04242,GKE,Geilenkirchen Air Base
53.918201,12.2783,RLG,Rostock-Laage Airport
54.459301,9.51633,WBG,Schleswig Air Base
50.049800872802734,8.325400352478027,WIE,Wiesbaden Army Airfield
48.7156982421875,11.534000396728516,IGS,Ingolstadt Manching Airport
56.517502,21.096901,LPX,Liepāja International Airport
56.920752,23.970711,RIX,Riga International Airport
57.3578,21.544201,VNT,Ventspils International Airport
58.420502,-135.449005,EXI,Excursion Inlet Seaplane Base
54.963965,24.08582,KUN,Kaunas International Airport
55.973202,21.093901,PLQ,Palanga International Airport
55.729400634765625,24.46080017089844,PNV,Panevėžys Air Base
55.89390182495117,23.395000457763672,SQQ,Šiauliai International Airport
54.634102,25.285801,VNO,Vilnius International Airport
32.4525985718,-98.682800293,RGR,Ranger Municipal Airport
-28.575001,16.5333,ALJ,Alexander Bay Airport
-29.281799,18.8139,AGZ,Aggeneys Airport
-22.679001,29.0555,ADY,Alldays Airport
-32.897099,27.2791,BIY,Bisho Airport
-29.092699,26.302401,BFN,Bram Fischer International Airport
-28.273369,26.135835,UTE,Bultfontein Airport
-24.740527,31.517973,ASS,Arathusa Safari Lodge Airport
-32.1567001343,25.6455993652,CDO,Cradock Airport
-33.9648017883,18.6016998291,CPT,Cape Town International Airport
-28.36840057373047,32.24810028076172,DUK,Mubatuba Airport
-27.84939956665039,32.30970001220703,PZL,Zulu Inyala Airport
-33.035599,27.825899,ELS,King Phalo Airport
-28.71999931335449,31.88999938964844,EMG,Empangeni Airport
-23.72669982910156,27.68829917907715,ELL,Ellisras Matimba Airport
-28.82309913635254,27.908899307250977,FCB,Ficksburg Sentraoes Airport
-25.986299514799995,28.1401004791,GCJ,Grand Central Airport
-34.0056,22.378902,GRJ,George Airport
-23.2833,30.65,GIY,Giyani Airport
-26.2425,28.151199,QRA,Rand Airport
-28.0166049887,32.2751712799,HLW,Hluhluwe Airport
-28.2351,29.106199,HRS,Harrismith Airport
-24.361864,31.052921,HDS,Eastgate Airport / Air Force Base Hoedspruit
-26.871099,26.718,KXE,P C Pelser Airport
-28.802799224900003,24.7651996613,KIM,Kimberley Airport
-25.383327,31.105325,MQP,Kruger Mpumalanga International Airport
-25.44029998779297,31.93000030517578,KOF,Komatipoort Airport
-27.45669937133789,23.4113998413086,KMH,Johan Pienaar Airport
-29.6884002686,17.093999862700002,KLZ,Kleinsee Airport
-25.938964,27.926642,HLA,Lanseria International Airport
-28.36009979248047,23.43910026550293,LMR,Lime Acres Finsch Mine Airport
-24.7478,31.4743,LDZ,Londolozi Airport
-29.6144444444,31.1197222222,DUR,King Shaka International Airport
-23.061899185180664,29.86470031738281,LCD,Louis Trichardt Airport
-32.9688987732,18.1602993011,SDB,Langebaanweg Airport
-28.5816993713,29.7497005463,LAY,Ladysmith Airport
-24.816866,31.544085,AAM,Malamala Airport
-30.8574008942,30.343000412,MGH,Margate Airport
-22.355672,29.9862,MEZ,Musina(Messina) Airport
-25.798400878900004,25.5480003357,MBD,Mmabatho International Airport
-25.473581,31.565947,LLE,Malelane Airport
-34.158746,22.055676,MZY,Mossel Bay Airport
-27.626100540161133,32.0443000793457,MZQ,Mkuze Airport
-27.7705993652,29.9769001007,NCS,Newcastle Airport
-24.389,31.326,NGL,Ngala Airport
-25.5,30.9137992859,NLP,Nelspruit Airport
-34.563474,20.252438,OVG,Overberg Airport
-33.6069984436,22.188999176,OUH,Oudtshoorn Airport
-26.1392,28.246,JNB,O.R. Tambo International Airport
-33.555057,26.881656,AFD,Port Alfred Airport
-33.984901,25.6173,PLZ,Chief Dawid Stuurman International Airport
-34.08816,23.328723,PBZ,Plettenberg Bay Airport
-23.9372005463,31.1553993225,PHW,Hendrik Van Eck Airport
-31.60612,29.52175,JOH,Port St Johns Airport
-29.6835994720459,22.77059936523437,PRK,Prieska Airport
-29.6490001678,30.3987007141,PZB,Pietermaritzburg Airport
-25.333799,27.173401,NTY,Pilanesberg International Airport
-23.845269,29.458615,PTG,Polokwane International Airport
-26.670999527,27.0818996429,PCF,Potchefstroom Airport
-31.92020034790039,26.882200241088867,UTW,Queenstown Airport
-28.740999221800003,32.0920982361,RCB,Richards Bay Airport
-27.54719924926757,24.17250061035156,RVO,Reivilo Airport
-33.812199,19.9028,ROD,Robertson Airport
-29.68930053710937,17.939599990844727,SBU,Springbok Airport
-26.52409935,29.1700992584,ZEC,Secunda Airport
-24.9473754342,31.4488477707,GSS,Sabi Sabi Airport
-27.6486,22.9993,SIS,Sishen Airport
-24.960899353,31.5886993408,SZK,Skukuza Airport
-23.0769,30.3836,THY,Thohoyandou Airport
-29.317800521850582,26.822799682617188,TCU,Thaba Nchu Tar Airport
-23.8244,30.3293,LTA,Tzaneen Airport
-28.3206005096,31.4165000916,ULD,Prince Mangosuthu Buthelezi Airport
-28.400517,21.263357,UTN,Upington International Airport
-24.7854003906,31.3549003601,ULX,Ulusaba Airport
-31.5463631849,28.6733551025,UTT,K. D. Matanzima Airport
-26.9824008942,24.7287998199,VRU,Vryburg Airport
-29.770599,31.058399,VIR,Virginia Airport
-31.641000747680664,18.5447998046875,VRE,Vredendal Airport
-27.78689956665039,30.79640007019043,VYD,Vryheid Airport
-25.6539,28.224199,PRY,Wonderboom Airport
-25.8299999237,28.2224998474,WKF,Waterkloof Air Force Base
-27.996825,26.663334,WEL,Welkom Airport
-21.15914,27.468545,FRW,P G Matante Intl
-21.692499,21.6581,GNZ,Ghanzi Airport
-24.602301,24.691,JWA,Jwaneng Airport
-17.831653,25.166195,BBK,Kasane International Airport
-19.149477,23.787937,KHW,Khwai River Lodge Airport
-25.1981,25.7139,LOQ,Lobatse Airport
-19.970491,23.431409,MUB,Maun Airport
-21.265901,25.319667,ORP,Orapa Airport
-24.555201,25.9182,GBE,Sir Seretse Khama International Airport
-20.5534,26.115801,SXN,Sua Pan Airport
-22.0583,27.8288,PKW,Selebi Phikwe Airport
-18.518475,24.077687,SVT,Savuti Airport
-18.373899459838867,21.83259963989257,SWX,Shakawe Airport
-22.191897,29.131229,TLD,Tuli Lodge Airport
-26.034524,22.401252,TBY,Tshabong Airport
-4.2517,15.253,BZV,Maya-Maya International Airport
-2.516883,14.754403,DJM,Djambala Airport
-3.749781,14.490264,KNJ,Kindamba Airport
-2.45,14.533,LCO,Lague Airport
-4.014874,13.966112,MUY,Mouyondzi Airport
-3.68661,13.37402,SIB,Sibiti Airport
-4.223077,13.286347,NKY,Yokangassi Airport
-2.846651,13.821155,ANJ,Zanaga Airport
-2.95,12.7,MSX,Mossendjo Airport
-1.03104,15.336009,BOE,Boundji Airport
-1.226666,15.91,OLL,Oyo Ollombo Airport
-0.883,14.8,EWO,Ewo Airport
-1.829403,15.885237,GMM,Gamboma Airport
1.589968,18.046624,ION,Impfondo Airport
-0.071271,14.506621,KEE,Kelle Airport
-0.020842,15.577746,MKJ,Makoua Airport
-0.524566,15.93782,FTX,Owando Airport
1.998326,14.174217,SOE,Souanke Airport
3.057593,18.514433,BTB,Betou Airport
1.61599,16.037901,OUE,Ouesso Airport
-3.483,12.617,KMK,Makabana Airport
-4.20635,12.6599,DIS,Ngot Nzoungou Airport
-4.81603,11.8866,PNR,Antonio Agostinho-Neto International Airport
-26.528999,31.307501,MTS,Matsapha Airport
-26.358611,31.716944,SHO,King Mswati III International Airport
4.936999797821045,15.894000053405762,CRF,Carnot Airport
4.39848,18.518801,BGF,Bangui M'Poko International Airport
4.784999847412109,22.7810001373291,BGU,Bangassou Airport
10.23639965057373,22.71689987182617,IRO,Birao Airport
5.847012,20.64992,BBY,Bambari Airport
8.427206039428711,20.635156631469727,NDL,N'Délé Airport
5.958000183105469,15.63700008392334,BOP,Bouar Airport
6.527780055999756,21.98940086364746,BIV,Bria Airport
6.492000102996826,17.429000854492188,BSN,Bossangoa Airport
4.221580028533936,15.786399841308594,BBT,Berbérati Airport
8.010560035705566,22.39859962463379,ODA,Ouadda Airport
6.519999980926514,23.26000022888184,AIG,Yalinga Airport
5.002226,25.101857,IMO,Zemio Airport
5.33301019669,25.9319000244,MKI,M'Boki Airport
7.314109802246094,18.308799743652344,BTG,Batangafo Airport
9.581117,21.728172,GDI,Gordil Airport
5.693999767303467,22.801000595092773,BMF,Bakouma Airport
8.899999618530273,22.78300094604492,ODJ,Ouanda Djallé Airport
4.988609790802002,23.92779922485352,RFA,Rafaï Airport
6.517000198364258,18.26700019836425,BCF,Bouca Airport
6.344170093536377,16.3218994140625,BOZ,Bozoum Airport
-1.408615,5.624163,NBN,Annobón Airport
1.90547,9.80568,BSG,Bata International Airport
1.676437,11.024904,GEM,President Obiang Nguema International Airport
3.75527,8.70872,SSG,Malabo International Airport
-7.9696,-14.3937,ASI,RAF Ascension Island
-15.957725,-5.645943,HLE,Saint Helena Airport
-20.430201,57.683601,MRU,Sir Seewoosagur Ramgoolam International Airport
-19.7577,63.361,RRG,Sir Charles Gaetan Duval Airport
-18.215569,177.729767,KVU,Korolevu Seaplane Base
-7.31327,72.411102,NKW,Diego Garcia Naval Support Facility
2.8738899231,9.9777803421,KBI,Kribi Airport
4.08919000626,9.3605298996,TKC,Tiko Airport
4.00608,9.71948,DLA,Douala International Airport
5.70417,9.30639,MMF,Mamfe Airport
5.89527777778,10.0338888889,BLC,Bali Airport
10.0925,14.4456,KLE,Kaélé Airport
4.475,14.3625,OUR,Batouri Airport
10.3561,15.2372,GXX,Yagoua Airport
10.45139980316162,14.257399559020996,MVR,Salak Airport
5.63692,10.7508,FOM,Foumban Nkounja Airport
7.357009887695312,13.559200286865234,NGE,N'Gaoundéré Airport
4.54861,13.7261,BTA,Bertoua Airport
9.33588981628418,13.370100021362305,GOU,Garoua International Airport
5.45,10.067,DSC,Dschang Airport
5.536920070650001,10.3545999527,BFX,Bafoussam Airport
6.03924,10.1226,BPC,Bamenda Airport
2.875999927520752,11.1850004196167,EBW,Ebolowa Airport
3.83604,11.5235,YAO,Yaoundé Ville Airport
3.72256,11.5533,NSI,Yaoundé Nsimalen International Airport
-8.85917,31.336399,MMQ,Mbala Airport
-13.5583,32.5872,CIP,Chipata Airport
-15.053957,25.985673,CGX,Chunga Airstrip
-15.6334,29.6036,JEK,Jeki Airport
-12.5728,27.8939,CGJ,Kasompe Airport
-14.998818,22.648372,KLB,Kalabo Airport
-14.8,24.783001,KMZ,Kaoma Airport
-10.210169,31.123045,KAA,Kasama Airport
-8.525,30.663,ZKB,Kasaba Bay Airport
-17.8218,25.822701,LVI,Harry Mwanga Nkumbula International Airport
-14.375891,23.248648,LXU,Lukulu Airport
-15.330833,28.452722,LUN,Kenneth Kaunda International Airport
-11.137,28.872601,MNS,Mansa Airport
-13.258899688720703,31.936599731445312,MFU,Mfuwe Airport
-15.2545,23.1623,MNR,Mongu Airport
-15.9658,25.9333,ZGM,Ngoma Airport
-15.724789,29.303541,RYL,Royal Zambezi Lodge Airstrip
-12.961667,28.516667,NLA,Simon Mwansa Kapwepwe International Airport
-16.113,23.2982,SXG,Senanga Airport
-12.9005,28.1499,KIW,Southdowns Airport
-17.47632,24.306089,SJQ,Sesheke Airport
-12.173700332641602,26.365100860595703,SLI,Solwesi Airport
62.4525985718,-157.988998413,FLT,Flat Airport
-13.535996,23.10559,BBZ,Zambezi Airport
10.0198,139.789993,ULI,Ulithi Airport
-11.5337,43.2719,HAH,Prince Said Ibrahim International Airport
-12.298096,43.766496,NWA,Mohéli Bandar Es Eslam Airport
-12.131047,44.430044,AJN,Ouani Airport
-12.809319,45.281815,DZA,Dzaoudzi Pamandzi International Airport
-20.890087,55.518894,RUN,Roland Garros Airport
-21.319362,55.422506,ZSE,Pierrefonds Airport
-18.9175,48.2181944444,OHB,Ambohibary Airport
-20.3553902921,45.5433726311,WML,Malaimbandy Airport
-19.839221,47.063713,ATJ,Antsirabe Airport
-18.701273,44.614921,WAQ,Antsalova Airport
-19.83300018310547,48.79999923706055,VVB,Mahanoro Airport
-18.7969,47.478802,TNR,Ivato Airport
-18.80501,45.273467,JVA,Ankavandra Airport
-19.686701,44.541901,BMD,Belo sur Tsiribihina Airport
-19.562799,45.450802,ZVA,Miandrivazo Airport
-18.049999,44.033001,MXT,Maintirano Airport
-19.58300018310547,48.803001403808594,ILK,Atsinanana Airport
-17.850083,44.920467,TVA,Morafenobe Airport
-17.093901,49.8158,SMS,Sainte Marie Airport
-18.113537,49.392262,TMM,Toamasina Ambalamanasy Airport
-17.476101,43.972801,WTA,Tambohorano Airport
-20.2847,44.3176,MOQ,Morondava Airport
-18.759677,46.054065,WTS,Tsiroanomandidy Airport
-19.383333,48.95,VAT,Vatomandry Airport
-17.795378,48.442583,WAM,Ambatondrazaka Airport
-12.3494,49.291698,DIE,Arrachart Airport
-14.544277,48.691413,WBE,Ankaizina Airport
-16.1639,49.7738,WMR,Mananara Nord Airport
-14.651700019836426,49.620601654052734,ZWA,Andapa Airport
-13.1884,48.987999,AMB,Ambilobe Airport
-15.199999809265137,48.483001708984375,WBD,Avaratra Airport
-15.584286,47.623587,WPB,Port Bergé Airport
-14.9994,50.320202,ANM,Antsirabe Airport
-14.629514,47.763555,HVA,Analalava Airport
-15.666842,46.351233,MJN,Amborovy Airport
-13.3121,48.3148,NOS,Nosy Be-Fascene International Airport
-16.10169,45.358837,DWB,Soalala Airport
-16.071916,47.642953,WMP,Mampikony Airport
-16.74453,44.482484,BPY,Besalampy Airport
-15.437742,49.689081,WMN,Maroantsetra Airport
-14.2786,50.174702,SVB,Sambava Airport
-16.751064,47.619016,TTS,Tsaratanana Airport
-13.3758,50.0028,VOH,Vohemar Airport
-14.8988,47.9939,WAI,Ambalabe Airport
-15.845992,48.834718,WMA,Mandritsara Airport
-13.484816,48.632702,IVA,Ampampamena Airport
-21.6069837647,45.1360201836,WBO,Antsoa Airport
-21.0463049303,44.9404120445,WMD,Mandabe Airport
-25.038099,46.9561,FTU,Tôlanaro Airport
-21.441601,47.111698,WFI,Fianarantsoa Airport
-22.8053,47.820599,RVA,Farafangana Airport
-22.4047202024,46.1649370193,IHO,Ihosy Airport
-21.426105,44.316509,MJA,Manja Airport
-22.119699,48.021702,WVK,Manakara Airport
-24.235694754699995,45.3045272827,OVA,Bekily Airport
-21.201799,48.358299,MNJ,Mananjary Airport
-21.700000762939453,43.733001708984375,TDV,Samangoky Airport
-21.753837,43.374753,MXM,Morombe Airport
-23.3834,43.7285,TLE,Toliara Airport
-23.3507665915,47.5817012787,VND,Vangaindrano Airport
-23.732999801635746,44.38899993896485,BKU,Betioky Airport
-24.699699,44.7342,AMP,Ampanihy Airport
-22.2964423522,44.5315361023,WAK,Ankazoabo Airport
-7.86222,13.1161,AZZ,Ambriz Airport
-6.269899845123291,14.246999740600586,SSY,Mbanza Congo Airport
-12.609,13.4037,BUG,Benguela Airport
-9.050734,13.499078,NBJ,Dr. Antonio Agostinho Neto International Airport
-14.105106,21.45083,GGC,Lumbala Airport
-5.59839,12.188145,CAB,Cabinda Airport
-8.78361,17.9897,CFF,Cafunfo Airport
-7.35889,20.804701,PGI,Chitato Airport
-9.76937,15.455319,KNP,Kapanda Airport
-12.4792,13.4869,CBT,Catumbela Airport
-15.1603,19.156099,CTI,Cuito Cuanavale Airport
-8.37361,18.923599,CXM,Camaxilo Airport
-11.8931,22.916239,CAV,Cazombo Airport
6.162443,73.28752,FND,Funadhoo Airport
-7.400889873504639,20.818500518798828,DUE,Dundo Airport
-17.0435009003,15.683799743700002,VPE,Ngjiva Pereira Airport
-12.8089,15.7605,NOV,Albano Machado Airport
-12.404600143433,16.947399139404,SVP,Kuito Airport
-12.3712,13.5366,LLT,Lobito Airport
-8.442339,20.732701,LBZ,Lucapa Airport
-8.85837,13.2312,LAD,Quatro de Fevereiro International Airport
-9.11596012115,18.0492992401,LZM,Luzamba Airport
-9.525090217590332,16.312400817871094,MEG,Malanje Airport
-14.657600402832031,17.71980094909668,SPP,Menongue Airport
-15.2612,12.1468,MSZ,Welwitschia Mirabilis International Airport
-7.754509925842285,15.287699699401855,GXG,Negage Airport
-10.722,13.7655,PBN,Porto Amboim Airport
-9.68907,20.4319,VHC,Saurimo Airport
-6.141089916229248,12.371800422668455,SZA,Soyo Airport
-11.1679,13.8475,NDD,Sumbe Airport
-10.7158,22.2311,UAL,Luau Airport
-14.924699783325195,13.574999809265137,SDD,Lubango Airport
-11.7681,19.897699,LUO,Luena Airport
-7.60307,15.0278,UGO,Uige Airport
-11.4264,15.1014,CEO,Waco Kungo Airport
-16.755399703979492,14.965299606323242,XGN,Xangongo Airport
-7.259277,12.862355,ARZ,N'zeto Airport
-7.716939926149999,21.358200073200003,NZA,Nzagi Airport
-1.13967001438,13.9035997391,AKE,Akieni Airport
-0.1075,11.9438,BGB,Booue Airport
-2.4,11.367,KDN,Ndende Airport
-1.278325,10.612497,FOU,Fougamou Airport
-1.893056,11.9125,MBC,M'Bigou Airport
-2.455187,10.9358,MGX,Moabi Airport
-0.183,10.75,KDJ,Ville Airport
-1.18461,12.4413,KOU,Koulamoutou Mabimbi Airport
-1.84514,11.0567,MJL,Mouilla Ville Airport
1.5431100130081177,11.58139991760254,OYE,Oyem Airport
-0.665214,13.6731,OKN,Okondja Airport
-0.704389,10.2457,LBQ,Lambarene Airport
2.152413,12.108044,MVX,Minvoul Airport
-0.545,9.444,AWE,Alowe Airport
2.07564,11.4932,BMM,Bitam Airport
-1.526558,13.251332,MFF,Moanda Airport
0.976706,13.968462,MKB,Mekambo Airport
-0.711739,8.75438,POG,Port Gentil International Airport
-1.57473,9.26269,OMB,Omboue Hospital Airport
-1.930801,9.319577,IGE,Tchongorove Airport
0.5792109966278076,12.890899658203123,MKU,Makokou Airport
0.4586,9.41228,LBV,Libreville Leon M'ba International Airport
0.783,11.55,MZC,Mitzic Airport
-1.65616,13.438,MVB,M'Vengue El Hadj Omar Bongo Ondimba International Airport
-0.826667,12.7486,LTL,Lastourville Airport
-2.88848,10.955429,TCH,Tchibanga Airport
-3.458372,10.676539,MYB,Mayumba Airport
8.3513,-10.2269,FOY,Foya Airport
1.661155,7.411081,PCP,Principe Airport
0.378175,6.71215,TMS,São Tomé International Airport
-16.18187,39.945217,ANO,Angoche Airport
-19.7964,34.9076,BEW,Beira International Airport
-14.815,36.529999,FXO,Cuamba Airport
-19.15130043029785,33.42900085449219,VPY,Chimoio Airport
-25.9971446991,32.9293518066,IHC,Inhaca Airport
-12.350174,40.602297,IBO,Ibo Airport
-23.8764,35.408501,INH,Inhambane Airport
-13.274,35.2663,VXC,Lichinga Airport
-15.0331,40.6717,LFB,Lumbo Airport
-25.920799,32.572601,MPM,Maputo Airport
-11.6729,39.563099,MUD,Mueda Airport
-11.3618,40.3549,MZB,Mocímboa da Praia Airport
-14.4882,40.7122,MNC,Nacala Airport
-15.105600357055664,39.28179931640625,APL,Nampula Airport
-12.993302,40.524867,POL,Pemba Airport
-26.826913,32.838444,PDD,Ponta do Ouro Airport
-17.855499267578125,36.86909866333008,UEL,Quelimane Airport
-16.104799270629883,33.64020156860352,TET,Chingozi Airport
-22.018400192260746,35.31330108642578,VNX,Vilankulo Airport
-24.892909,33.753024,VJB,Xai-Xai Chongoene Airport
-5.6967,53.6558,DES,Desroches Airport
-4.67434,55.521801,SEZ,Seychelles International Airport
-18.1321,125.7873,FSL,Fossil Downs Airport
-4.319256,55.691561,PRI,Praslin Island Airport
-3.723683,55.206106,BDI,Bird Island Airport
-3.802067,55.667439,DEI,Denis Island Airport
-4.582785,55.944928,FRK,Frégate Island Airport (UNUSABLE)
9.14444,18.374399,SRH,Sarh Airport
10.288345,15.379561,OGR,Bongor Airport
13.847,20.844299,AEH,Abeche Airport
8.628503,16.074241,MQQ,Moundou Airport
9.3979,16.3125,LTC,Lai Airport
13.239778,18.315893,ATV,Ati Airport
12.1337,15.034,NDJ,N'Djamena International Airport
12.385511,17.070989,BKR,Bokoro Airport
13.443574,14.739254,OTC,Bol-Berim Airport
12.17048,18.675642,MVO,Mongo Airport
11.0340003967,20.2740001678,AMC,Am Timan Airport
9.37806,14.925,PLF,Pala Airport
10.483,16.716999,OUT,Bousso Airport
14.1456,15.3144,AMO,Mao Airport
17.917101,19.111099,FYT,Faya-Largeau Airport
-6.1518,150.6264,FUB,Fulleborn Airport
-16.816485,28.344786,BZH,Bumi Hills Airport
-20.021254,28.626296,BUQ,Joshua Mqabuko Nkomo International Airport
-20.206699,32.6283,CHJ,Chipinge Airport
-21.008101,31.5786,BFO,Buffalo Range Airport
-18.09589958190918,25.839000701904297,VFA,Victoria Falls International Airport
-17.931801,31.0928,HRE,Robert Gabriel Mugabe International Airport
-16.5198,28.885,KAB,Kariba International Airport
-21.231,32.3336,MJW,Mahenye Airport
-18.997499465942,32.627201080322,UTA,Mutare Airport
